"","ein","real_year","name","address","fips","assets","income","lon","lat"
"1",421602181,2013,"SAN ANTONIO RIVER FOUNDATION","PO BOX 830045, SAN ANTONIO, TX 78283",48029,5167183,1535391,-98.5030929,29.4134586
"2",746046937,2013,"TRAVIS AUDUBON SOCIETY INC","3710 CEDAR ST STE 5, AUSTIN, TX 78705",48453,2944042,308070,-97.7353473,30.300459
"3",746049372,2013,"TEXAS GARDEN CLUBS","6088 BABE ZAHARIAS DR, BEAUMONT, TX 77705",48245,1403471,296639,-94.1464983,30.0232613
"4",756423660,2013,"BAIRD FAMILY CHARITABLE TRUST","1701 N GREENVILLE AVE SUITE 500, RICHARDSON, TX 75081",48113,578054,133824,-96.7267391,32.9568019
"5",237357269,2013,"TEXAS AIRSTREAM HARBOR INC TAHI","2710 S MEDFORD DR, LUFKIN, TX 75901",48005,103329,73780,-94.7029001,31.317648
"6",742121275,2013,"LAKE MCQUEENEY PROP OWNERS ASSN INC","PO BOX 781, MCQUEENEY, TX 78123",48187,172438,36067,-98.0410634,29.6087981
"7",742645332,2013,"VALLEY PROUD ENVIRONMENTAL COUNCIL","513 E JACKSON ST STE 304, HARLINGEN, TX 78550",48061,133435,108796,-97.6906359,26.1930745
"8",752212157,2013,"EVERETT E AND ORABETH K WOODS FOUNDATION","PO BOX 5749, ABILENE, TX 79608",48441,133892,15045,-99.75,32.42
"9",742094805,2013,"KINGS POINT TRAIL ASSOCIATION","1075 KINGWOOD DRIVE, KINGWOOD, TX 77339",48201,631852,221249,-95.2407799,30.0505449
"10",510225607,2013,"KINGWOOD GARDEN CLUB","PO BOX 5048, KINGWOOD, TX 77325",48201,84926,26703,-95.22,30.07
"11",752154523,2013,"ANGELINA BEAUTIFULCLEAN","PO BOX 1606, LUFKIN, TX 75902",48005,21019,128365,-94.7235939,31.3374423
"12",750787690,2013,"LAKE LYDIA INC","PO BOX 1484, QUITMAN, TX 75783",48499,352887,72848,-95.464,32.819699
"13",751954862,2013,"WOODS CEMETERY ASSOCIATION","127 COUNTY ROAD 4262, TENAHA, TX 75974",48419,264882,9523,-94.4233956,30.7364128
"14",742601251,2013,"DAVIS MOUNTAINS TRANS PECOS HERITAGE ASSOCIATION","PO BOX 1209, ALPINE, TX 79831",48043,12940,31967,-103.6610115,30.3584919
"15",746069002,2013,"MESQUITE TRAIL DRIVERS ASSOCIATION","PO BOX 38, ADKINS, TX 78101",48029,49831,116468,-98.2372329,29.3930129
"16",760436267,2013,"EAST MATAGORDA BAY FOUNDATION INC","PO BOX 4004, SARGENT, TX 77404",48321,15551,1152,-95.9671658,28.9643278
"17",760567365,2013,"PECKERWOOD GARDENS CONSERVATION FOUNDATION INC","20571 FM 359 RD, HEMPSTEAD, TX 77445",48473,481478,149391,-96.039607,30.057688
"18",274374251,2013,"MAGNOLIA GARDEN CLUB","148 S DOWLEN RD, BEAUMONT, TX 77707",48245,70200,78512,-94.1730943,30.0730332
"19",752351673,2013,"CENTER FOR LEGISLATIVE ENERGY AND ENVIRONMENTAL RESEARCH","5400 LBJ FREEWAY, DALLAS, TX 75240",48113,148163,218157,-96.8167378,32.924654
"20",752655909,2013,"NORTH TEXAS SECTION OF THE WATER ENVIRONMENT ASSOCIATION OF TEXAS","12750 MERIT DR STE 1100, DALLAS, TX 75251",48113,210283,78569,-96.7710444,32.9225371
"21",742772459,2013,"TEXAS GULF COAST SUPERINTENDENTS ASSOCIATION","PO BOX 271352, CORP CHRISTI, TX 78427",48355,19259,32978,-97.4148358,27.6956307
"22",742687511,2013,"TEXAS ORGANIC FARMERS AND GARDENERS ASSOCIATION","PO BOX 48, ELGIN, TX 78621",48021,29343,102690,-97.3702735,30.3496528
"23",237109965,2013,"STREAMS AND VALLEYS INC","PO BOX 470184, FORT WORTH, TX 76147",48439,1287695,398352,-97.3600469,32.7500817
"24",263749177,2013,"SAN ANTONIO BAY FOUNDATION","933 E COURT ST, SEGUIN, TX 78155",48187,31565,200510,-97.953625,29.5686778
"25",742613666,2013,"USEFUL WILD PLANTS INC","2612 SWEENEY LN, AUSTIN, TX 78723",48453,156070,28590,-97.6815401,30.3079529
"26",742441468,2014,"SUSTAINABLE FOOD CENTER","2921 E 17TH ST BLDG C, AUSTIN, TX 78702",48453,4902337,2708947,-97.7100801,30.278543
"27",453929881,2013,"MERCURY ONE INC","6301 RIVERSIDE DR, IRVING, TX 75039",48113,5067013,6992955,-96.9391537,32.8940924
"28",455518326,2013,"TEXAS CLEAN ENERGY COALITION","327 CONGRESS AVE STE 450, AUSTIN, TX 78701",48453,176118,181443,-97.7431768,30.2659386
"29",751495717,2014,"FRIENDS OF THE FORT WORTH NATURE CENTER AND REFUGE INC","9601 FOSSIL RIDGE RD, FORT WORTH, TX 76135",48439,536575,488918,-97.4756516,32.845932
"30",752573928,2013,"LEE PARK AND ARLINGTON HALL CONSERVANCY","PO BOX 190872, DALLAS, TX 75219",48113,476108,1088762,-96.8107577,32.8078864
"31",273114002,2013,"H2O4 TEXAS COALITION","3305 SILVERLEAF DR, AUSTIN, TX 78757",48453,22722,280553,-97.7454261,30.355664
"32",270712564,2013,"JOHN BUNKER SANDS WETLAND CENTER INC","2101 CEDAR SPRINGS RD STE 1600, DALLAS, TX 75201",48113,1879706,262506,-96.8063384,32.7940761
"33",451864591,2013,"TAKING CARE OF TEXAS","3500 JEFFERSON ST STE 301, AUSTIN, TX 78731",48453,146533,110250,-97.7518946,30.3080252
"34",742924400,2013,"COMMUNITY INVESTMENT CORPORATION","PO BOX 4279, AUSTIN, TX 78765",48453,0,1145,-97.7437526,30.3040525
"35",270586701,2013,"CO2 IS GREEN INC","601 JEFFERSON STREET, HOUSTON, TX 77002",48201,4054,0,-95.3723074,29.7532925
"36",742178792,2013,"SAN ANTONIO BOTANICAL GARDEN SOCIETY INC","555 FUNSTON PL, SAN ANTONIO, TX 78209",48029,9677640,6919682,-98.4587271,29.4588656
"37",510187748,2013,"DALLAS GARDEN CLUB OF THE DALLAS","7000 PARK LN, DALLAS, TX 75225",48113,271379,312340,-96.7846237,32.8728447
"38",760046318,2013,"TREES FOR HOUSTON","PO BOX 270477, HOUSTON, TX 77277",48201,2164041,1473367,-95.6049489,29.7461902
"39",751375644,2013,"LOUISE B BELSTERLING FOUNDATION","4340 BEVERLY DR, DALLAS, TX 75205",48113,502863,134395,-96.8096606,32.8323843
"40",742250898,2013,"ALAMO HEIGHTS-TERRELL HILLS GARDEN CLUB INC","5108 BROADWAY ST STE 216, SAN ANTONIO, TX 78209",48029,97284,46600,NA,NA
"41",742600978,2013,"BEXAR COUNTY MASTER GARDENERS INC","3355 CHERRY RIDGE ST STE 208, SAN ANTONIO, TX 78230",48029,267274,149828,-98.5480286,29.5097532
"42",750975500,2013,"AMERICAN ASSOCIATION OF PROFESSIONAL LANDMEN INC","4100 FOSSIL CREEK BLVD, FORT WORTH, TX 76137",48439,30692987,17978836,-97.2962702,32.8474168
"43",452782423,2013,"PURE ENERGY SPORTS","2307 OMAHA DR, HARKER HTS, TX 76548",48027,0,125001,-97.6735177,31.0622897
"44",751840314,2013,"FORT WORTH GARDEN CLUB INC","3220 BOTANIC GARDEN BLVD, FORT WORTH, TX 76107",48439,3572861,1291022,-97.3636032,32.7404284
"45",742690768,2013,"KEEP MCALLEN BEAUTIFUL INC","PO BOX 220, MCALLEN, TX 78505",48215,40949,100211,-98.23,26.2
"46",271298380,2013,"COALITION FOR RESPONSIBLE REGULATION","601 JEFFERSON STREET, HOUSTON, TX 77002",48201,21470,279988,-95.3723074,29.7532925
"47",751761481,2013,"DALLAS ECOLOGICAL FOUNDATION","13709 GAMMA RD, DALLAS, TX 75244",48113,869466,269441,-96.8371518,32.9355908
"48",752132135,2013,"KEEP ABILENE BEAUTIFUL INC","PO BOX 60, ABILENE, TX 79604",48441,29202,23883,-99.7322905,32.4520305
"49",752876262,2013,"DALLAS COUNTY AUDUBON SOCIETY INC DBA AUDUBON DALLAS","PO BOX 12713, DALLAS, TX 75225",48113,846878,82860,-96.7969879,32.7766642
"50",760327389,2013,"HERMANN PARK CONSERVANCY","6201 A HERMANN PARK DRIVE, HOUSTON, TX 77030",48201,37475474,24212384,-95.3886536,29.7142342
"51",751057918,2013,"TEXAS GARDEN CLUBS INC","3111 OLD GARDEN RD, FORT WORTH, TX 76107",48439,777993,156497,-97.3635705,32.738796
"52",752254312,2013,"KEEP MESQUITE BEAUTIFUL INC","PO BOX 850137, MESQUITE, TX 75185",48113,46382,56726,-96.5983607,32.7757
"53",431987259,2013,"TEXAS WATERSHED MANAGEMENT FOUNDATION","214 LEISURE ACRES RD, GATESVILLE, TX 76528",48099,438115,83501,-97.7835264,31.4068199
"54",362797811,2013,"WOMENS COUNCIL GARDEN OF THE DALLAS ARBORETUM AND BOTANICAL SOCIETY","200 CRESCENT CT STE 1200, DALLAS, TX 75201",48113,1279413,630516,-96.8039079,32.7936538
"55",237011870,2013,"HOUSTON AUDUBON SOCIETY INC","440 WILCHESTER BLVD, HOUSTON, TX 77079",48201,6141999,1019503,-95.5699463,29.7714539
"56",237039786,2013,"FOUNDERS GARDEN CLUB OF DALLAS","C/O 4332 ARCADY, DALLAS, TX 75205",48113,198796,60559,-96.8092601,32.8283087
"57",741145998,2013,"RIVER OAKS GARDEN CLUB","2503 WESTHEIMER RD, HOUSTON, TX 77098",48201,1279588,768190,-95.417969,29.7420042
"58",262959996,2013,"WOODS PROJECT","6 SLEEPY OAKS CIR, HOUSTON, TX 77024",48201,291992,593009,-95.5063988,29.7759939
"59",263299387,2013,"FORT BEND GREEN","1 FLUOR DANIEL DR, SUGAR LAND, TX 77478",48157,133319,78110,-95.6262453,29.6053346
"60",752793697,2013,"KEEP ROWLETT BEAUTIFUL INC","PO BOX 1992, ROWLETT, TX 75030",48113,71396,377831,-96.5709471,32.9053964
"61",753253640,2013,"OUR LANDS AND WATERS FOUNDATION A PUBLIC PARTNERSHIP WITH THE US ARMY CORP OF ENG","PO BOX 121330, ARLINGTON, TX 76012",48439,2196635,1566998,-97.1413222,32.757305
"62",760243519,2013,"GULF COAST POWER ASSOCIATION INC","2800 E WHITESTONE BLVD STE 120 # D, CEDAR PARK, TX 78613",48491,530319,829656,NA,NA
"63",752421448,2013,"HIGH PLAINS RESOURCE CONSERVATION AND DEVELOPMENT AREA INC","PO BOX, HEREFORD, TX 79045",48117,203350,79451,-102.3999467,34.8180582
"64",262563455,2013,"CLASS 4 WINDS INC","600 S TYLER STE 700, AMARILLO, TX 79101",48375,50810,57320,-101.8388806,35.2076414
"65",272005123,2013,"NATIONAL OCEAN POLICY COALITION","2211 NORFOLK ST, HOUSTON, TX 77098",48201,91694,171900,-95.4133455,29.7321343
"66",452609167,2013,"COASTAL PRAIRIE PARTNERSHIP","PO BOX 540342, HOUSTON, TX 77254",48201,2216,8945,-95.41,29.68
"67",760391164,2013,"LAFFITES COVE AT PIRATES BEACH NATURE SOCIETY","PO BOX 160, TOMBALL, TX 77377",48201,251094,67685,-95.6160549,30.0971621
"68",204467651,2013,"HOMEBASE TEXAS","310 COMAL NO 100, AUSTIN, TX 78702",48453,975677,422014,-97.7279531,30.2610416
"69",746049372,2014,"TEXAS GARDEN CLUBS","6088 BABE ZAHARIAS DR, BEAUMONT, TX 77705",48245,1384346,313177,-94.1464983,30.0232613
"70",203398696,2013,"GROUNDWORK DALLAS INC","718 N BUCKNER BOULEVARD 416 SUITE 1, DALLAS, TX 75218",48113,243645,277204,-96.7108124,32.8463456
"71",742633614,2013,"COASTAL BEND GUIDES ASSOCIATION","PO BOX 1571, ARANSAS PASS, TX 78335",48409,33358,39609,-97.0975854,27.8777613
"72",61693724,2013,"US GREEN BUILDING COUNCIL TEXAS GULF COAST CHAPTER","10401 WESTOFFICE DR, HOUSTON, TX 77042",48201,43586,125696,-95.551474,29.7199302
"73",742352514,2013,"LOWER RIO GRANDE VALLEY NATURE CENT","PO BOX 8125, WESLACO, TX 78599",48215,508486,242663,-97.9914086,26.1989275
"74",750771007,2013,"TEXAS FORESTRY ASSOCIATION INC","PO BOX 1488, LUFKIN, TX 75902",48005,357459,727639,-94.7235939,31.3374423
"75",300028134,2013,"DEVILS SINKHOLE SOCIETY INC","PO BOX 97, ROCKSPRINGS, TX 78880",48137,65308,53615,-100.2053582,30.0157647
"76",208867074,2013,"GREENS BAYOU CORRIDOR COALITION","16945 NORTHCHASE DR STE 1900, HOUSTON, TX 77060",48201,352617,333809,-95.4069631,29.9474849
"77",742130626,2013,"SAVE BARTON CREEK ASSOCIATION","910 W ANDERSON LN, AUSTIN, TX 78757",48453,386784,1397879,-97.7140627,30.3484075
"78",760586373,2013,"FRIENDS OF THE BAYTOWN NATURE CENTER INC","PO BOX 8177, BAYTOWN, TX 77522",48201,21321,12915,-94.9693741,29.769771
"79",271310367,2013,"CYBERWAYS AND WATERWAYS","1607 WATERSTON AVE, AUSTIN, TX 78703",48453,6935,115094,-97.7594328,30.2807395
"80",134249347,2013,"SOUTH TEXAS WATER UTILITY MANAGERS ASSOCIATION","PO BOX 621, RIO HONDO, TX 78583",48061,4074,24337,-97.5768441,26.2327099
"81",760458344,2013,"WOMENS ENERGY NETWORK OF HOUSTON","1707 POST OAK BLVD PMB 112, HOUSTON, TX 77056",48201,189786,628603,-95.46001,29.749344
"82",751879329,2013,"LAKE GRANBURY AREA BEAUTIFICATION COUNCIL INC","PO BOX 1921, GRANBURY, TX 76048",48221,76467,45363,NA,NA
"83",742562764,2013,"KEEP TEMPLE BEAUTIFUL","100 W ADAMS AVE STE 302, TEMPLE, TX 76501",48027,1419,50709,-97.3421193,31.0983961
"84",742768391,2013,"CLEAN AIR FORCE OF CENTRAL TEXAS","PO BOX 29295, AUSTIN, TX 78755",48453,131761,141796,-97.7430608,30.267153
"85",752234375,2013,"KEEP ATHENS BEAUTIFUL","201 W CORSICANA SUITE 4, ATHENS, TX 75751",48213,39103,83669,-95.8567337,32.2039868
"86",510187748,2014,"DALLAS GARDEN CLUB OF THE DALLAS","7000 PARK LN, DALLAS, TX 75225",48113,257912,270946,-96.7846237,32.8728447
"87",432080187,2013,"EAST SHORE COMMUNITY ASSOCIATION","2204 TIMBERLOCH PL STE 180, THE WOODLANDS, TX 77380",48339,450504,1437573,-95.4699992,30.159091
"88",562375157,2013,"IMAGES FOR CONSERVATION FUND","2112 W UNIVERSITY DR 801, EDINBURG, TX 78539",48215,191643,98718,-98.1854901,26.3040269
"89",273340044,2013,"GREENBELT ALLIANCE OF DENTON COUNTY","2459 BLACKJACK RD W, AUBREY, TX 76227",48121,12287,22656,-97.0208859,33.3131093
"90",752958519,2013,"HISTORIC CAMP BOWIE INITIATIVES INC","6100 CAMP BOWIE BLVD STE 23, FORT WORTH, TX 76116",48439,6852,147421,-97.4157397,32.7291727
"91",743136755,2013,"CARLTON WOODS CREEKSIDE ASSOCIATION","2204 TIMBERLOCH PL STE 180, THE WOODLANDS, TX 77380",48339,1014565,1466884,-95.4699992,30.159091
"92",751375644,2014,"LOUISE B BELSTERLING FOUNDATION","4340 BEVERLY DR, DALLAS, TX 75205",48113,629004,155768,-96.8096606,32.8323843
"93",760602346,2013,"HOUSTON TOMORROW","3015 RICHMOND AVE STE 201, HOUSTON, TX 77098",48201,58178,282991,-95.4240252,29.7335474
"94",364685823,2013,"LAND CONSERVATION SOCIETY OF TEXAS INC","19333 HIGHWAY 59 N STE 170, HUMBLE, TX 77338",48201,107251,168152,-95.2714419,29.9991145
"95",200325123,2013,"COASTAL BEACH AND BAY FOUNDATION","PO BOX 1017, GALVESTON, TX 77553",48167,396903,44382,-94.79545,29.3026
"96",742974140,2013,"VICTORIA COUNTY MASTER GARDENER ASSOCIATION","PO BOX 1723, VICTORIA, TX 77902",48469,215975,73746,-97.01,28.8
"97",742989863,2013,"PINES AND PRAIRIES LAND TRUST","106 CONFERENCE DRIVE SUITE 2-A, BASTROP, TX 78602",48021,3628343,116588,-97.283938,30.1004716
"98",741611738,2013,"PONDEROSA FOREST MAINTENANCE ASSOCIATION INC","PO BOX 90355, HOUSTON, TX 77290",48201,717550,352123,-95.3698028,29.7604267
"99",510225607,2014,"KINGWOOD GARDEN CLUB","PO BOX 5048, KINGWOOD, TX 77325",48201,94867,49238,-95.22,30.07
"100",262117714,2013,"CLEANTX FOUNDATION INC","3925 W BRAKER LANE, AUSTIN, TX 78759",48453,11932,89454,-97.7354306,30.3950315
"101",760685448,2013,"WILLOW WATERHOLE GREENSPACE CONSERVANCY INC","11415 CHIMNEY ROCK RD STE 201, HOUSTON, TX 77035",48201,32286,52893,-95.4761018,29.6573257
"102",752352954,2013,"SAN ANGELO FRIENDS OF THE ENVIRONMENT","702 WAREHOUSE RD, SAN ANGELO, TX 76903",48451,164401,83803,-100.4452427,31.4283134
"103",742603919,2013,"COASTAL BEND BAY FOUNDATION","1231 AGNES SUITE A-4, CORPUS CHRISTI, TX 78401",48355,53936,191701,-97.4046056,27.787423
"104",760046520,2013,"INTERWOOD ASSOCIATION INC","5295 HOLLISTER ST, HOUSTON, TX 77040",48201,212808,144349,-95.5069529,29.8440684
"105",742488227,2013,"VALLEY LAND FUND INC","2400 N 10TH ST STE A, MCALLEN, TX 78501",48215,2177299,103075,-98.2260402,26.2252006
"106",264802013,2013,"FRIENDS FOR GOOD","26423 BAYOU VISTA CIR, KATY, TX 77494",48157,20753,12904,-95.8330349,29.7708299
"107",460920592,2013,"TEXAS LITTER CONTROL","150 PRUITT ROAD SUITE H, SPRING, TX 77380",48339,47393,677701,-95.443835,30.1198365
"108",751514511,2014,"MARIANNE SCRUGGS GARDEN CLUB OF THE DALLAS WOMANS CLUB","7000 PARK LN, DALLAS, TX 75225",48113,158691,54310,-96.7846237,32.8728447
"109",760617443,2013,"NORTH AMERICAN PROCESS TECHNOLOGY ALLIANCE","1501 N AMBURN RD STE 3, TEXAS CITY, TX 77591",48167,202097,176861,-95.0041672,29.3966703
"110",742143423,2013,"KEEP BRAZOS BEAUTIFUL INC","1737 BRIARCREST DR, BRYAN, TX 77802",48041,138084,186912,-96.338103,30.654448
"111",746068250,2013,"BIG BEND NATURAL HISTORY ASSOCIATION INC","PO BOX 196, BG BND NTL PK, TX 79834",48043,495666,528975,-103.2201828,29.2669239
"112",237375815,2013,"DALLAS ARBORETUM AND BOTANICAL SOCIETY INC","8617 GARLAND RD, DALLAS, TX 75218",48113,88421889,24878029,-96.7139551,32.8241651
"113",752351673,2014,"CENTER FOR LEGISLATIVE ENERGY AND ENVIRONMENTAL RESEARCH","5400 LBJ FREEWAY, DALLAS, TX 75240",48113,222858,276144,-96.8167378,32.924654
"114",371581800,2014,"GLEN ROSE BAND BOOSTER CLUB","PO BOX 3148, GLEN ROSE, TX 76043",48425,37214,51374,-97.7553061,32.2345872
"115",273741373,2013,"WHITE ROCK LAKE CONSERVANCY INC","PO BOX 140227, DALLAS, TX 75214",48113,41106,76720,-96.7568815,32.8121674
"116",741607050,2013,"TWIN MOUNTAIN MANOR INC","200 TWIN MOUNTAIN RD BOX H-4, WIMBERLEY, TX 78676",48209,182757,197940,-98.1049962,29.9952105
"117",742934364,2013,"SOLAR SAN ANTONIO","118 BROADWAY ST STE 621, SAN ANTONIO, TX 78205",48029,32275,389036,-98.487599,29.4272194
"118",742681873,2013,"CENTRAL TEXAS RESOURCE CONSERVATION AND DEVELOPMENT COUNCIL INC","400 PORTER ST, TAYLOR, TX 76574",48491,110701,60148,-97.4079734,30.5714066
"119",760501430,2013,"URBAN HARVEST","2311 CANAL STREET, HOUSTON, TX 77003",48201,319979,1070481,-95.346325,29.758353
"120",800746629,2013,"ALLIANCE FOR CONSERVATION EASEMENTS","14781 MEMORIAL DR, HOUSTON, TX 77079",48201,15001,14001,-95.6121738,29.7709536
"121",741696145,2013,"ECOLOGY ACTION OF TEXAS","PO BOX 1927, AUSTIN, TX 78767",48453,350139,449508,-97.739694,30.2694174
"122",760031884,2013,"CRADLE OF TEXAS CONSERVANCY INC","PO BOX 353, WEST COLUMBIA, TX 77486",48039,764831,49151,-95.6452249,29.1438582
"123",760511886,2013,"SCENIC GALVESTON INC","20 COLONY PARK CIR, GALVESTON, TX 77551",48167,3492051,78577,-94.8385547,29.2689069
"124",810554715,2013,"NELAC INSTITUTE","PO BOX 2439, WEATHERFORD, TX 76086",48367,16332,899113,-97.7905758,32.7522671
"125",752799755,2013,"KAUFMAN COUNTY SOLID WASTE MANAGEMENT COOPERATIVE INC","1100 AIRPORT RD, TERRELL, TX 75160",48257,137249,317670,-96.2683402,32.7178031
"126",237221304,2013,"WOODLAND HILLS TRAIL ASSOCIATION","6842 N SAM HOUSTON PKWY W, HOUSTON, TX 77064",48201,462500,274050,-95.5278664,29.9369528
"127",830462989,2013,"POSSUM KINGDOM LAKE PRESERVATION ASSOCIATION","16901 DALLAS PKWY STE 116, ADDISON, TX 75001",48113,120,0,-96.8298475,32.982044
"128",263638933,2013,"TEXAS INSTITUTE","1709 TRIPLE CROWN LN, PLANO, TX 75093",48085,2803,721,-96.8236694,33.0240033
"129",751712770,2013,"CHILDRESS ANGLERS AND SPORTSMAN CLUB","231 BLUEBONNET LN, CHILDRESS, TX 79201",48075,53260,39126,-100.3668389,34.4703784
"130",760288131,2013,"MOODY GARDENS INC","1 HOPE BLVD, GALVESTON, TX 77554",48167,92085467,107649825,-94.8502019,29.2729531
"131",742932549,2013,"KEYSTONE HERITAGE PARK INC","PO BOX 221527, EL PASO, TX 79913",48141,1110776,227368,-106.5613974,31.8386746
"132",200576859,2013,"BROWNSVILLE BOTANICAL GARDENS AND ARBORETUM","205 PECAN BLVD, MCALLEN, TX 78501",48215,554056,11488,-98.2194854,26.216319
"133",237158154,2014,"HOUSTON ASSOCIATION OF PROFESSIONAL LANDMEN","800 BERING DR STE 120, HOUSTON, TX 77057",48201,755930,732083,-95.4806745,29.7578414
"134",43695294,2013,"HOUSTON BOTANIC GARDEN","3701 KIRBY DRIVE, HOUSTON, TX 77098",48201,1178818,1154803,-95.41801,29.7331166
"135",760046318,2014,"TREES FOR HOUSTON","PO BOX 270477, HOUSTON, TX 77277",48201,2342173,1828829,-95.6049489,29.7461902
"136",760655841,2014,"MEMORIAL PARK CONSERVANCY INC","7575 NORTH PICNIC LANE, HOUSTON, TX 77007",48201,2556953,2088561,-95.4477855,29.767053
"137",746131894,2013,"HONDO GARDEN CLUB INC","1903 19TH ST, HONDO, TX 78861",48325,315000,184066,-99.1494637,29.3465519
"138",742168039,2014,"TEXAS VEGETABLE ASSOCIATION","901 BUSINESS PARK DR, MISSION, TX 78572",48215,55668,74924,-98.3175488,26.1986962
"139",760209022,2013,"AUDUBON DOCENT GUILD","440 WILCHESTER BLVD, HOUSTON, TX 77079",48201,74927,103415,-95.5699463,29.7714539
"140",870699956,2013,"TOWN LAKE TRAIL FOUNDATION","PO BOX 5195, AUSTIN, TX 78763",48453,3763565,821448,-97.77,30.3
"141",454616548,2013,"PAISANO SPRINGS FOUNDATION","364 MENGER SPGS, BOERNE, TX 78006",48259,1480510,1176410,-98.7294045,29.7627859
"142",751825883,2013,"TEXAS LAND CONSERVANCY","6626 SILVERMINE DR, AUSTIN, TX 78736",48453,9734280,981534,-97.8889559,30.2464134
"143",742010402,2013,"CHAMPION FOREST FUND INC","2204 TIMBERLOCH PL STE 245, THE WOODLANDS, TX 77380",48339,442352,381625,-95.4699992,30.159091
"144",521812626,2013,"CASE MANAGEMENT SOCIETY OF AMERICA TX-HOUSTON-GULF COAST","14027 MEMORIAL DR PMB 265, HOUSTON, TX 77079",48201,23246,94775,-95.5903062,29.7699141
"145",273768198,2013,"WOODS AND WATER KIDS ADVENTURES INC","6315B FM 1488 RD, MAGNOLIA, TX 77354",48339,60071,131184,-95.5643531,30.2218273
"146",742739793,2013,"COOPERATIVE TEAMWORK AND RECYCLING ASSISTANCE","3355 BEE CAVE RD BLDG 3 SUITE 304, AUSTIN, TX 78746",48453,478302,87519,-97.8032627,30.2751787
"147",742117354,2013,"LEXINGTON WOODS OWNERS COMMITTEE INC","PO BOX 681007, HOUSTON, TX 77268",48201,267416,426670,-95.5087962,30.0145474
"148",300276347,2013,"HOUSTON REGIONAL MONITORING","3720 DECKER DR, BAYTOWN, TX 77520",48201,2987559,2596088,-95.0065221,29.7648933
"149",760621454,2013,"FRIENDS OF THE EDDIE V GRAY WETLANDS EDUCATION CENTER","PO BOX 638, BAYTOWN, TX 77522",48201,43200,54526,-94.9693741,29.769771
"150",760440865,2013,"GULF COAST ASSOCIATION OF GEOLOGICAL SOCIETIES INC","PO BOX 79514, HOUSTON, TX 77279",48201,613814,372097,-95.3698028,29.7604267
"151",201111056,2013,"TEXAS BOTANICAL GARDENS AND N AMERICAN INTERPRETIVE CENTER","PO BOX 513, GOLDTHWAITE, TX 76844",48333,953581,444883,-98.5708763,31.4498855
"152",223880229,2013,"TEXAS ENVIRONMENTAL RESEARCH CONSORTIUM","711 LOUISIANA ST, HOUSTON, TX 77002",48201,34126,11254,-95.3656692,29.7601541
"153",760247588,2013,"ARMAND BAYOU NATURE CENTER FOUNDATION CO NEIL THOMAS","1301 MCKINNEY ST, HOUSTON, TX 77010",48201,1313639,40594,-95.3615297,29.7554839
"154",741984482,2013,"COASTAL CONSERVATION ASSOCIATION","6919 PORTWEST DR STE 100, HOUSTON, TX 77024",48201,16379200,23767576,-95.4493617,29.7802681
"155",752390840,2013,"EAST TEXAS ARBORETUM AND BOTANICAL SOCIETY INC","PO BOX 2231, ATHENS, TX 75751",48213,1714008,510519,NA,NA
"156",750968821,2013,"AMARILLO BOTANICAL GARDENS","1400 STREIT DR, AMARILLO, TX 79106",48375,5817335,990995,-101.9152488,35.1977481
"157",452701367,2013,"MISSION VERDE ALLIANCE","PO BOX 15856, SAN ANTONIO, TX 78212",48029,14619,164055,-98.4936282,29.4241219
"158",760668230,2013,"FORT BEND COUNTY MASTER GARDENERS INC","1402 BAND RD, ROSENBERG, TX 77471",48157,93720,77637,-95.8097985,29.5165904
"159",746069809,2013,"AUSTIN WOODS AND WATERS CLUB","PO BOX 80022, AUSTIN, TX 78708",48453,116322,212153,-97.7051165,30.3911673
"160",237243633,2013,"SHERWOOD-ELMGROVE TRAIL ASSOCIATION","1075 KINGWOOD DR STE 100, KINGWOOD, TX 77339",48201,772712,258879,-95.2407799,30.0505449
"161",270505879,2013,"INTERNATIONAL MARITIME AND ENERGY CENTER OF HOUSTON","203 IVY AVENUE STE 200, DEER PARK, TX 77536",48201,28441,0,-95.1213024,29.7088947
"162",331095299,2014,"GALVESTON ISLAND NATURE TOURISM COUNCIL","PO BOX 1468, GALVESTON, TX 77553",48167,185585,171625,-94.79545,29.3026
"163",742569827,2014,"TREEFOLKS INC","PO BOX 704, AUSTIN, TX 78767",48453,197617,816993,-97.7860636,30.2405598
"164",741648152,2013,"NORCHESTER MAINTENANCE FUND INC CO CHAPARRAL MANAGEMENT COMPANY","PO BOX 681007, HOUSTON, TX 77268",48201,265667,307536,-95.5087962,30.0145474
"165",203415046,2013,"FRIENDS OF BLUE HOLE","PO BOX 1601, WIMBERLEY, TX 78676",48209,40815,135953,-98.0986204,29.9974362
"166",741708558,2013,"GREENWOOD FOREST FUND INC","12700 CHAMPION FOREST DR, HOUSTON, TX 77066",48201,1195431,884791,-95.5100257,29.9765915
"167",742253593,2013,"CROWES NEST FARM INC","10300 TAYLOR LN, MANOR, TX 78653",48453,1104028,199589,-97.5325068,30.3012834
"168",201991645,2013,"BEAU THERIOT COMANCHE CANYON PRESERVE LANDS INC","6535 COMANCHE TRL, AUSTIN, TX 78732",48453,8470710,70358,-97.8709185,30.4043619
"169",752215558,2013,"RIVER LEGACY FOUNDATION","703 NW GREEN OAKS BLVD, ARLINGTON, TX 76006",48439,1671810,874508,-97.115287,32.7834833
"170",756423660,2014,"BAIRD FAMILY CHARITABLE TRUST","1701 N GREENVILLE AVE STE 500, RICHARDSON, TX 75081",48113,630594,370795,-96.7267391,32.9568019
"171",752580047,2014,"KEEP IRVING BEAUTIFUL","3000 ROCK ISLAND RD, IRVING, TX 75060",48113,30563,75296,-96.9871941,32.8149515
"172",742601251,2014,"DAVIS MOUNTAINS TRANS PECOS HERITAGE ASSOCIATION","PO BOX 1209, ALPINE, TX 79831",48043,18976,47435,-103.6610115,30.3584919
"173",113736286,2013,"NATIONAL NETWORK OF ABORTION FUNDS TEXAS EQUAL ACCESS FUND","501 WYNNEWOOD VILLAGE BOX 386, DALLAS, TX 75224",48113,76227,137458,-96.8317309,32.7210983
"174",270744614,2013,"PECAN STREET INC","3925 W BRAKER LN, AUSTIN, TX 78759",48453,2161208,5044368,-97.7354306,30.3950315
"175",742590850,2013,"KEEP HARLINGEN BEAUTIFUL INC","PO BOX 534026, HARLINGEN, TX 78553",48061,34832,73050,-97.6985697,26.2073017
"176",742538984,2013,"RIVERSIDE NATURE CENTER ASSOCIATION","150 FRANCISCO LEMOS ST S, KERRVILLE, TX 78028",48265,949836,185485,-99.1486854,30.0501276
"177",746046937,2014,"TRAVIS AUDUBON SOCIETY INC","3710 CEDAR ST STE 5, AUSTIN, TX 78705",48453,3127678,364995,-97.7353473,30.300459
"178",760377029,2013,"KATY PRAIRIE CONSERVANCY","3015 RICHMOND AVE STE 230, HOUSTON, TX 77098",48201,34059646,7913557,-95.4240252,29.7335474
"179",260106908,2013,"HILL COUNTRY ALLIANCE","15315 HIGHWAY 71, BEE CAVE, TX 78738",48453,133485,333048,-97.9829724,30.3154087
"180",237221209,2013,"FORT WORTH BOTANICAL SOCIETY INC","3220 BOTANIC GARDEN BLVD, FT WORTH, TX 76107",48439,4959757,4544870,-97.363807,32.73537
"181",481284000,2013,"COASTAL PRAIRIE COALITION GRAZING LANDS CONSERVATION INITIATIVE INC","PO BOX 2942, VICTORIA, TX 77902",48469,69585,57503,-97.01,28.8
"182",742627643,2013,"ENVIRONMENTAL FUND FOR TEXAS INC","PO BOX 1911, AUSTIN, TX 78767",48453,1328446,995101,-97.739694,30.2694174
"183",421573695,2013,"HOUSTON WILDERNESS INC","550 WESTCOTT ST STE 305, HOUSTON, TX 77007",48201,110147,594046,-95.4213244,29.7669429
"184",742168039,2013,"TEXAS VEGETABLE ASSOCIATION","901 BUSINESS PARK DR, MISSION, TX 78572",48215,26233,68927,-98.3175488,26.1986962
"185",455242196,2013,"WATER QUEST INC","PO BOX 2969, ODESSA, TX 79760",48135,152618,225000,-102.3665236,31.8463268
"186",741154434,2013,"ASSOCIATION OF TEXAS SOIL AND WATER CONSERVATION DISTRICTS INC","4311 S 31ST ST STE 125, TEMPLE, TX 76502",48027,159796,260904,-97.3733595,31.0578392
"187",820377903,2013,"WESTERN REGIONAL ENVIRONMENTAL EDUCATION COUNCIL DBA COUNCIL FOR ENVIRONMENTAL ED","5555 MORNINGSIDE DR STE 212, HOUSTON, TX 77005",48201,264923,615198,-95.4146548,29.7162019
"188",742714211,2013,"TEXAS ASSOCIATION OF RESOURCE CONSERVATION AND DEVELOPMENT AREAS","PO BOX 635067, NACOGDOCHES, TX 75963",48347,90337,835479,-94.65507,31.60323
"189",742631397,2013,"FRIENDS OF THE COLORADO RIVER FOUNDATION","PO BOX 50029, AUSTIN, TX 78763",48453,346121,530779,-97.7430608,30.267153
"190",742886586,2013,"TEXAS HILL COUNTRY RIVER REGION INC","PO BOX 52, CONCAN, TX 78838",48463,223634,304892,-99.7214883,29.5014937
"191",451534931,2013,"BARNETT SHALE WATER CONSERVATION","PO BOX 17206, FORT WORTH, TX 76102",48439,26050,5000,-97.3307658,32.7554883
"192",751980443,2013,"WICHITA FALLS STREAMS AND VALLEYS INC","PO BOX 1588, WICHITA FALLS, TX 76307",48485,160988,85970,-98.49,33.9099999
"193",760183954,2013,"BUFFALO BAYOU PARTNERSHIP INC","1113 VINE ST, HOUSTON, TX 77002",48201,65965562,34675913,-95.3572376,29.7685113
"194",61730795,2013,"US GREEN BUILDING COUNCIL NORTH TEXAS CHAPTER","1909 WOODALL RODGERS FWY, DALLAS, TX 75201",48113,17250,208938,-96.8031592,32.7890688
"195",263090197,2013,"TRAVIS HABITAT AND LAND CONSERVANCY","5905 MAURYS TRL, AUSTIN, TX 78730",48453,0,0,-97.8211164,30.3722521
"196",421602181,2014,"SAN ANTONIO RIVER FOUNDATION","PO BOX 830045, SAN ANTONIO, TX 78283",48029,5680800,1106065,-98.5030929,29.4134586
"197",453662285,2013,"SOUTH CENTRAL PARTNERSHIP FOR ENERGY EFFICIENCY AS A RESOURCE","3103 BEE CAVES RD STE 135, AUSTIN, TX 78746",48453,136023,391858,-97.7983477,30.2720883
"198",841512096,2013,"GREAT PLAINS RESTORATION COUNCIL","PO BOX 1206, FORT WORTH, TX 76101",48439,53113,104342,-97.3291991,32.7465982
"199",742164352,2013,"KEEP WACO BEAUTIFUL","PO BOX 1493, WACO, TX 76703",48309,99376,96571,-97.1334745,31.5535966
"200",742884531,2013,"BEXAR LAND TRUST INC","PO BOX 6250, SAN ANTONIO, TX 78209",48029,788042,477183,-98.5677274,29.5129128
"201",237403757,2013,"ARMAND BAYOU NATURE CENTER INC","PO BOX 58828, HOUSTON, TX 77258",48201,903560,702290,-95.3698028,29.7604267
"202",742645332,2014,"VALLEY PROUD ENVIRONMENTAL COUNCIL","513 E JACKSON ST STE 304, HARLINGEN, TX 78550",48061,74875,99997,-97.6906359,26.1930745
"203",300523041,2013,"AQUAPONICS AND EARTH SUSTAINABLE LI","314 W BELT LINE RD, DESOTO, TX 75115",48113,79585,94018,-96.8606897,32.5882998
"204",742742695,2013,"TEXAS LAND DEVELOPERS ASSOC INC","1210 E TYLER AVE, HARLINGEN, TX 78550",48061,5445,113330,-97.6830666,26.1893748
"205",800541645,2014,"MEMORIAL PARK CONSERVANCY ENDOWMENT","7575 NORTH PICNIC LANE, HOUSTON, TX 77007",48201,158942,2717,-95.4477855,29.767053
"206",752337868,2013,"TEXAS CONSERVATION FUND","PO BOX 58405, HOUSTON, TX 77258",48201,80007,117821,-95.3698028,29.7604267
"207",752101234,2013,"TURTLE CREEK ASSOCIATION","PO BOX 192765, DALLAS, TX 75219",48113,261892,389287,-96.8109852,32.8122051
"208",454908468,2013,"BISBEES FISH AND WILDLIFE CONSERVATION FUND INC","2300 MCDERMOTT RD, PLANO, TX 75025",48085,11282,836050,-96.7346148,33.1004582
"209",741692204,2013,"CITIZENS ENVIRONMENTAL COALITION EDUCATIONAL FUND","PO BOX 702, HOUSTON, TX 77001",48201,47761,95592,-95.37,29.77
"210",742742037,2013,"RGISC INC","1 W END WASHINGTON ST BLDG P-11, LAREDO, TX 78040",48479,183430,243081,-99.5192691,27.5089076
"211",742879756,2013,"WIMBERLEY VALLEY WATERSHED ASSOCIATION","PO BOX 2534, WIMBERLEY, TX 78676",48209,1124601,176219,-98.0986204,29.9974362
"212",264419008,2013,"ECO ELP INC","PO BOX 3243, EL PASO, TX 79923",48141,25462,20012,-106.459373,31.7818968
"213",746388418,2013,"FORMOSA PLASTICS ENVIRONMENTAL TRUST","PO BOX 7, PORT LAVACA, TX 77979",48057,974067,28596,-96.6421835,28.6170127
"214",731628865,2013,"GUADALUPE BLANCO RIVER TRUST","933 E COURT ST, SEGUIN, TX 78155",48187,1546330,178579,-97.953625,29.5686778
"215",455017295,2013,"WHAT-A-KITE FOUNDATION INC","205 CROWN COLONY DR, LUFKIN, TX 75901",48005,166899,11415,-94.7269479,31.274491
"216",742350796,2013,"LAKES MASTER ASSOCIATION INC","7502 VENICE DR, CORP CHRISTI, TX 78413",48355,177734,210392,-97.4129361,27.6760674
"217",260435585,2013,"BARNETT SHALE ENERGY EDUCATION COUNCIL","777 TAYLOR ST STE 900, FORT WORTH, TX 76102",48439,296606,298223,-97.3321623,32.7518057
"218",741617540,2013,"MEDINA LAKE BETTERMENT ASSOCIATION","11225 PARK ROAD 37, LAKEHILLS, TX 78063",48019,280877,70902,-98.9454924,29.5889883
"219",710920918,2013,"WATERSHED CORP","524 OLYMPUS ST, CEDAR HILL, TX 75104",48113,72121,96135,-96.9362401,32.5795143
"220",742245311,2013,"WILDFLOWER DONOR INC","4801 LA CROSSE AVE, AUSTIN, TX 78739",48453,164164,489446,-97.8732112,30.1854455
"221",760461030,2013,"AIR ALLIANCE HOUSTON","3914 LEELAND ST, HOUSTON, TX 77003",48201,416407,608216,-95.3421771,29.7379743
"222",752488233,2013,"KEEP LEWISVILLE BEAUTIFUL","101 W MAIN STREET STE 102, LEWISVILLE, TX 75057",48121,151021,107091,-96.9943505,33.0466087
"223",752955573,2013,"TRINITY RIVER COMMISSION INC DBA TRINITY COMMONS FOUNDATION INC","PO BOX 150387, DALLAS, TX 75315",48113,81692,298733,-96.7690925,32.773792
"224",742730023,2013,"TRAVIS COUNTY MASTER GARDENERS ASSOCIATION INC","PO BOX 106554, AUSTIN, TX 78716",48453,75621,40335,-97.798582,30.2730973
"225",453230780,2013,"POWER PLANTING INTERNATIONAL","PO BOX 277, WAXAHACHIE, TX 75168",48139,107638,91600,-96.8461247,32.3873684
"226",620604364,2013,"AFRICAN VIOLET SOCIETY OF AMERICA INC","2375 NORTH ST, BEAUMONT, TX 77702",48245,291415,261057,-94.1222134,30.0875405
"227",742924909,2013,"COASTAL BEND BAYS AND ESTUARIES PROGRAM INC","1305 N SHORELI, CORPUS CHRISTI, TX 78401",48355,11252735,3886223,-97.3925595,27.8041265
"228",260440839,2013,"KEEP VICTORIA BEAUTIFUL","3003 N VINE ST, VICTORIA, TX 77901",48469,2084,50949,-97.0089166,28.8197604
"229",330833441,2013,"FUNDACION ECOLOGICA SELVA NEGRA","C/O FLORES GROUP 7272 WURZBACH ROAD, SAN ANTONIO, TX 78240",48029,525104,139,-98.5845296,29.5038388
"230",751220638,2014,"ROLLING PLAINS COTTON GROWERS INC","PO BOX 5382, ABILENE, TX 79608",48441,223883,105181,-99.75,32.42
"231",237303703,2013,"INTERNATIONAL WATER RESOURCES ASSOC","1515 COMMERCE ST, FORT WORTH, TX 76102",48439,313437,238728,-97.3255814,32.7485064
"232",900648270,2013,"PARAPLEGICS ON INDEPENDENT NATURE TRIPS","403 PACIFIC AVE, TERRELL, TX 75160",48257,50921,667964,-96.2831375,32.7405023
"233",752655909,2014,"NORTH TEXAS SECTION OF THE WATER ENVIRONMENT ASSOCIATION OF TEXAS","12750 MERIT DR STE 1100, DALLAS, TX 75251",48113,266112,86260,-96.7710444,32.9225371
"234",840571239,2013,"TEXAS AUTOMOTIVE RECYCLING ASSOCIATION","PO BOX 842084, HOUSTON, TX 77284",48201,58884,102939,-95.36,29.76
"235",743020979,2013,"METROPOLITAN PARTNERSHIP FOR ENERGY DBA BUILD SA GREEN","118 BROADWAY ST STE 232, SAN ANTONIO, TX 78205",48029,34356,348170,-98.487599,29.4272194
"236",742441468,2013,"SUSTAINABLE FOOD CENTER","2921 E 17TH ST BLDG C, AUSTIN, TX 78702",48453,4178750,2866352,-97.7100801,30.278543
"237",742487218,2013,"MCBRIDE CONSERVATION FUND FOUNDATION","PO BOX 80022, AUSTIN, TX 78708",48453,518497,25410,-97.7051165,30.3911673
"238",760008423,2014,"GARDEN CLUB OF HOUSTON","4212 SAN FELIPE BOX 486, HOUSTON, TX 77027",48201,576895,440339,-95.4492593,29.7470139
"239",20749601,2013,"TEXAS ENVIRONMENTAL JUSTICE ADVOCACY","6733 HARRISBURG BLVD, HOUSTON, TX 77011",48201,22818,109281,-95.3072691,29.7375486
"240",742094805,2014,"KINGS POINT TRAIL ASSOCIATION","1075 KINGWOOD DRIVE, KINGWOOD, TX 77339",48201,771431,222428,-95.2407799,30.0505449
"241",752244319,2013,"KEEP ODESSA BEAUTIFUL INC","PO BOX 3864, ODESSA, TX 79760",48135,69358,18345,-102.3665236,31.8463268
"242",742053921,2013,"TEXAS ECONOMIC DEVELOPMENT COUNCIL INC","1011 SAN JACINTO BLVD STE 650, AUSTIN, TX 78701",48453,682653,1151633,-97.738685,30.2716398
"243",746069002,2014,"MESQUITE TRAIL DRIVERS ASSOCIATION","PO BOX 38, ADKINS, TX 78101",48029,52670,90860,-98.2372329,29.3930129
"244",201508875,2013,"LANDA GARDENS CONSERVANCY","PO BOX 12243, SAN ANTONIO, TX 78212",48029,808513,176623,-98.4936282,29.4241219
"245",208753042,2014,"HARRIS COUNTY MASTER GARDENER ASSOC","3033 BEAR CREEK DR, HOUSTON, TX 77084",48201,144299,19436,-95.6403247,29.8156989
"246",742948145,2013,"HILL COUNTRY CONSERVANCY","PO BOX 163125, AUSTIN, TX 78716",48453,7196305,1639293,-97.8229321,30.2945971
"247",760557498,2014,"BAYOU LAND CONSERVANCY","10330 LAKE RD STE J, HOUSTON, TX 77070",48201,1688948,545634,-95.5800014,30.0030291
"248",742772459,2014,"TEXAS GULF COAST SUPERINTENDENTS ASSOCIATION","PO BOX 271352, CORP CHRISTI, TX 78427",48355,29952,46440,-97.4148358,27.6956307
"249",750974342,2013,"TEXAS DISCOVERY GARDENS","PO BOX 152537, DALLAS, TX 75315",48113,391456,1156614,-96.7690925,32.773792
"250",760546145,2013,"MATAGORDA COUNTY BIRDING NATURE CTR","PO BOX 2212, BAY CITY, TX 77404",48321,901241,44005,-95.9671658,28.9643278
"251",201976730,2013,"FORUM OF CIVICS FOUNDATION","2503 WESTHEIMER RD, HOUSTON, TX 77098",48201,912003,90919,-95.417969,29.7420042
"252",261564909,2013,"CONSERVE EAST TEXAS INC","PO BOX 154540, LUFKIN, TX 75915",48005,710248,7601,-94.7623534,31.339412
"253",747055759,2013,"KEEP TEXAS BEAUTIFUL INC","PO BOX 2251, AUSTIN, TX 78768",48453,1080570,838704,-97.74,30.27
"254",742884531,2014,"BEXAR LAND TRUST INC","PO BOX 6250, SAN ANTONIO, TX 78209",48029,913387,582127,-98.5677274,29.5129128
"255",262959996,2014,"WOODS PROJECT","6 SLEEPY OAKS CIR, HOUSTON, TX 77024",48201,306009,603571,-95.5063988,29.7759939
"256",741145998,2014,"RIVER OAKS GARDEN CLUB","2503 WESTHEIMER RD, HOUSTON, TX 77098",48201,1528913,1078391,-95.417969,29.7420042
"257",742250898,2014,"ALAMO HEIGHTS-TERRELL HILLS GARDEN CLUB INC","5108 BROADWAY ST STE 216, SAN ANTONIO, TX 78209",48029,104521,53355,NA,NA
"258",742550843,2014,"RECYCLING ALLIANCE OF TEXAS","6500 TRACOR LN, AUSTIN, TX 78725",48453,322040,310698,-97.6625256,30.2780108
"259",747055759,2014,"KEEP TEXAS BEAUTIFUL INC","PO BOX 2251, AUSTIN, TX 78768",48453,981504,845291,-97.74,30.27
"260",742690768,2014,"KEEP MCALLEN BEAUTIFUL INC","PO BOX 220, MCALLEN, TX 78505",48215,18935,97636,-98.23,26.2
"261",742245311,2014,"WILDFLOWER DONOR INC","4801 LA CROSSE AVE, AUSTIN, TX 78739",48453,151039,314089,-97.8732112,30.1854455
"262",742600978,2014,"BEXAR COUNTY MASTER GARDENERS INC","3355 CHERRY RIDGE ST STE 208, SAN ANTONIO, TX 78230",48029,284560,165773,-98.5480286,29.5097532
"263",752154523,2014,"ANGELINA BEAUTIFULCLEAN","PO BOX 1606, LUFKIN, TX 75902",48005,46640,186127,-94.7235939,31.3374423
"264",750974342,2014,"TEXAS DISCOVERY GARDENS","PO BOX 152537, DALLAS, TX 75315",48113,463713,1165425,-96.7690925,32.773792
"265",362797811,2014,"WOMENS COUNCIL GARDEN OF THE DALLAS ARBORETUM AND BOTANICAL SOCIETY","200 CRESCENT CT STE 1200, DALLAS, TX 75201",48113,1268226,163016,-96.8039079,32.7936538
"266",750975500,2014,"AMERICAN ASSOCIATION OF PROFESSIONAL LANDMEN INC","800 FOURNIER ST, FORT WORTH, TX 76102",48439,36237137,18655250,-97.3445518,32.7505138
"267",742924909,2014,"COASTAL BEND BAYS AND ESTUARIES PROGRAM INC","PROGRAMINC 615 N UPPER RD, CORPUS CHRISTI, TX 78401",48355,11274563,5484817,-97.3965231,27.7968881
"268",431987259,2014,"TEXAS WATERSHED MANAGEMENT FOUNDATION","214 LEISURE ACRES RD, GATESVILLE, TX 76528",48099,332513,66645,-97.7835264,31.4068199
"269",752876262,2014,"DALLAS COUNTY AUDUBON SOCIETY INC DBA AUDUBON DALLAS","PO BOX 12713, DALLAS, TX 75225",48113,831272,76318,-96.7969879,32.7766642
"270",200325123,2014,"COASTAL BEACH AND BAY FOUNDATION","4108 PIRATES BCH, GALVESTON, TX 77554",48167,189996,965,-94.9364115,29.2051074
"271",742164352,2014,"KEEP WACO BEAUTIFUL INC","PO BOX 1493, WACO, TX 76703",48309,125201,86573,-97.1334745,31.5535966
"272",742768391,2014,"CLEAN AIR FORCE OF CENTRAL TEXAS","PO BOX 29295, AUSTIN, TX 78755",48453,95730,115675,-97.7430608,30.267153
"273",753253640,2014,"OUR LANDS AND WATERS FOUNDATION A PUBLIC PARTNERSHIP WITH THE US ARMY CORP OF ENG","PO BOX 121330, ARLINGTON, TX 76012",48439,2182789,0,-97.1413222,32.757305
"274",800927243,2015,"WATERFOWL PRESERVATION ALLIANCE INC","7324 SOUTHWEST FWY STE 608, HOUSTON, TX 77074",48201,5152,120542,-95.5181819,29.7018321
"275",752799755,2014,"KAUFMAN COUNTY SOLID WASTE MANAGEMENT COOPERATIVE INC","1100 AIRPORT RD, TERRELL, TX 75160",48257,98582,287001,-96.2683402,32.7178031
"276",830462989,2014,"POSSUM KINGDOM LAKE PRESERVATION ASSOCIATION","16901 DALLAS PKWY STE 116, ADDISON, TX 75001",48113,120,0,-96.8298475,32.982044
"277",742730023,2014,"TRAVIS COUNTY MASTER GARDENERS ASSOCIATION INC","PO BOX 106554, AUSTIN, TX 78716",48453,88592,40920,-97.798582,30.2730973
"278",364685823,2014,"LAND CONSERVATION SOCIETY OF TEXAS INC","19333 HIGHWAY 59 N STE 170, HUMBLE, TX 77338",48201,108373,19474,-95.2714419,29.9991145
"279",452701367,2014,"MISSION VERDE ALLIANCE","PO BOX 15856, SAN ANTONIO, TX 78212",48029,15306,122572,-98.4936282,29.4241219
"280",742714186,2014,"CHAUTAUQUA FOUNDATION INC","801 W GIBSON ST, AUSTIN, TX 78704",48453,68314,68024,-97.7563629,30.252327
"281",760617443,2014,"NORTH AMERICAN PROCESS TECHNOLOGY ALLIANCE","1501 N AMBURN RD STE 3, TEXAS CITY, TX 77591",48167,219565,223532,-95.0041672,29.3966703
"282",760546145,2014,"MATAGORDA COUNTY BIRDING NATURE CTR","PO BOX 2212, BAY CITY, TX 77404",48321,842899,27480,-95.9671658,28.9643278
"283",262117714,2014,"CLEANTX FOUNDATION INC","3925 WEST BRAKER LANE, AUSTIN, TX 78759",48453,1101,133897,-97.7354306,30.3950315
"284",262563455,2014,"CLASS 4 WINDS INC","600 S TYLER STE 700, AMARILLO, TX 79101",48375,32879,68737,-101.8388806,35.2076414
"285",460809569,2014,"INTERNATIONAL SOIL AND WATER ENVIROMENTAL EDUCATION PROGRAM INC","2008 CAMPBELL CT, COLLEGE STA, TX 77845",48041,45018,60000,-96.2134985,30.5713737
"286",452609167,2014,"COASTAL PRAIRIE PARTNERSHIP","PO BOX 540342, HOUSTON, TX 77254",48201,5382,24559,-95.41,29.68
"287",752841573,2014,"HOTZONE INC","482 VZCR 1106, CANTON, TX 75103",48467,154443,136689,-95.8377555,32.6256753
"288",742742037,2014,"RGISC INC","1 WEST END WASHINGTON ST BLDG P-11, LAREDO, TX 78040",48479,186169,174944,-99.5192691,27.5089076
"289",620604364,2014,"AFRICAN VIOLET SOCIETY OF AMERICA INC","2375 NORTH ST, BEAUMONT, TX 77702",48245,340762,289626,-94.1222134,30.0875405
"290",208867074,2014,"GREENS BAYOU CORRIDOR COALITION","16945 NORTHCHASE DR STE 1900, HOUSTON, TX 77060",48201,292383,231750,-95.4069631,29.9474849
"291",741956079,2014,"ASSOCIATION OF WATER BOARD DIRECTORS - TEXAS","400 RANDAL WAY STE 307, SPRING, TX 77388",48201,1988318,1754067,-95.4343181,30.0369695
"292",237039786,2014,"FOUNDERS GARDEN CLUB OF DALLAS","C/O 4332 ARCADY, DALLAS, TX 75205",48113,260780,160820,-96.8092601,32.8283087
"293",742631397,2014,"FRIENDS OF THE COLORADO RIVER FOUNDATION","PO BOX 50029, AUSTIN, TX 78763",48453,471227,662889,-97.7430608,30.267153
"294",460920592,2014,"TEXAS LITTER CONTROL","150 PRUITT ROAD, SPRING, TX 77380",48339,81048,1101643,-95.443835,30.1198365
"295",742989863,2014,"PINES AND PRAIRIES LAND TRUST","PO BOX 737, BASTROP, TX 78602",48021,3589209,178804,-97.3152701,30.1104947
"296",271498899,2014,"MUSTARD SEED PARTNERS INC","600 CONGRESS AVE STE 200, AUSTIN, TX 78701",48453,46142,30199,-97.7431606,30.2686309
"297",752955573,2014,"TRINITY RIVER COMMISSION INC","PO BOX 150387, DALLAS, TX 75315",48113,71966,351740,-96.7690925,32.773792
"298",760043028,2014,"TEXAS BIGHORN SOCIETY","1615 W LOOP 289, LUBBOCK, TX 79416",48303,526317,186344,-101.941887,33.578959
"299",751220638,2015,"ROLLING PLAINS COTTON GROWERS INC","PO BOX 5382, ABILENE, TX 79608",48441,231892,151590,-99.75,32.42
"300",421645381,2014,"FRONTERA LAND ALLIANCE","1201 N MESA STREET, EL PASO, TX 79902",48141,83726,55687,-106.4941042,31.766158
"301",742143423,2014,"KEEP BRAZOS BEAUTIFUL INC","213B S MAIN ST, BRYAN, TX 77803",48041,108565,134813,-96.3733698,30.6723275
"302",760511886,2014,"SCENIC GALVESTON INC","20 COLONY PARK CIR, GALVESTON, TX 77551",48167,3562432,51980,-94.8385547,29.2689069
"303",752488233,2014,"KEEP LEWISVILLE BEAUTIFUL","113 N POYDRAS ST STE 207, LEWISVILLE, TX 75057",48121,158590,103716,-96.995127,33.0465433
"304",746388418,2014,"FORMOSA PLASTICS ENVIRONMENTAL TRUS","PO BOX 7, PORT LAVACA, TX 77979",48057,950029,28375,-96.6421835,28.6170127
"305",760279876,2013,"GALVESTON BAY FOUNDATION INC","17330 HIGHWAY 3, WEBSTER, TX 77598",48201,2715744,3341087,-95.1230819,29.5416456
"306",746069809,2014,"AUSTIN WOODS AND WATERS CLUB","PO BOX 80022, AUSTIN, TX 78708",48453,35424,72331,-97.7051165,30.3911673
"307",270744614,2014,"PECAN STREET INC","3924 BERKMAN DR, AUSTIN, TX 78723",48453,2089725,3859047,-97.699568,30.2918169
"308",300028134,2014,"DEVILS SINKHOLE SOCIETY INC","PO BOX 97, ROCKSPRINGS, TX 78880",48137,65308,62246,-100.2053582,30.0157647
"309",260106908,2014,"HILL COUNTRY ALLIANCE","15315 W HIGHWAY 71, AUSTIN, TX 78738",48453,414915,499957,-97.9829724,30.3154087
"310",760529161,2014,"LAKE LIVINGSTON WATER SUPPLY AND SEWER SERVICE CORPORATION","PO BOX 1149, LIVINGSTON, TX 77351",48373,27176602,4813284,-94.9329898,30.711029
"311",741607050,2014,"TWIN MOUNTAIN MANOR INC","200 TWIN MOUNTAIN RD BOX H-4, WIMBERLEY, TX 78676",48209,162952,184877,-98.1049962,29.9952105
"312",760617108,2014,"BLACKWOOD EDUCATIONAL LAND INSTITUTE","PO BOX 271347, HOUSTON, TX 77277",48201,3619,133903,-95.6049489,29.7461902
"313",741611738,2014,"PONDEROSA FOREST MAINTENANCE ASSOCIATION INC","PO BOX 90355, HOUSTON, TX 77290",48201,761834,346314,-95.3698028,29.7604267
"314",203415046,2014,"FRIENDS OF BLUE HOLE","PO BOX 1601, WIMBERLEY, TX 78676",48209,186627,259080,-98.0986204,29.9974362
"315",760501430,2014,"URBAN HARVEST","2311 CANAL ST STE 200, HOUSTON, TX 77003",48201,146328,974922,-95.346325,29.758353
"316",274287579,2014,"GULF COAST COMMERCIAL REAL ESTATE NETWORK INC","6610 MALIBU DR, HOUSTON, TX 77092",48201,19027,70079,-95.489313,29.834762
"317",465448781,2014,"TEXAS SOLAR POWER ASSOCIATION","516 DAWSON RD APT 123, AUSTIN, TX 78704",48453,50907,136750,-97.7567374,30.2595143
"318",205125287,2015,"CY-WOODS ATHLETIC BOOSTER CLUB","13550 WOODS SPILLANE BLVD, CYPRESS, TX 77429",48201,105792,382838,-95.6816257,29.971341
"319",203287015,2014,"CALM AIR VISIBILITY UNLIMITED","941 W BYRD BLVD STE 101, UNIVERSAL CTY, TX 78148",48029,325802,212678,-98.3033266,29.5413977
"320",421573695,2014,"HOUSTON WILDERNESS INC","550 WESTCOTT ST STE 305, HOUSTON, TX 77007",48201,214659,706293,-95.4213244,29.7669429
"321",820377903,2014,"WESTERN REGIONAL ENVIRONMENTAL EDUCATION COUNCIL DBA COUNCIL FOR ENVIRONMENTAL ED","5555 MORNINGSIDE DR STE 212, HOUSTON, TX 77005",48201,390714,678940,-95.4146548,29.7162019
"322",742633614,2014,"COASTAL BEND GUIDES ASSOCIATION","PO BOX 1571, ARANSAS PASS, TX 78335",48409,32411,46059,-97.0975854,27.8777613
"323",432080187,2014,"EAST SHORE COMMUNITY ASSOCIATION","2204 TIMBERLOCH PL STE 180, THE WOODLANDS, TX 77380",48339,497051,1312495,-95.4699992,30.159091
"324",743136755,2014,"CARLTON WOODS CREEKSIDE ASSOCIATION","2204 TIMBERLOCH PL STE 180, THE WOODLANDS, TX 77380",48339,1624349,1595278,-95.4699992,30.159091
"325",273768198,2014,"WOODS AND WATER KIDS ADVENTURES INC","6315B FM 1488 RD, MAGNOLIA, TX 77354",48339,54682,110742,-95.5643531,30.2218273
"326",752645064,2014,"LONGVIEW PARKS AND LEISURE SERVICES FOUNDATION","PO BOX 2761, LONGVIEW, TX 75606",48183,245386,47752,-94.730502,32.462314
"327",710920918,2014,"WATERSHED CORP","524 OLYMPUS ST, CEDAR HILL, TX 75104",48113,95461,96081,-96.9362401,32.5795143
"328",746046937,2015,"TRAVIS AUDUBON SOCIETY INC","3710 CEDAR ST STE 5, AUSTIN, TX 78705",48453,3172690,471957,-97.7353473,30.300459
"329",751980443,2014,"WICHITA FALLS STREAMS AND VALLEYS INC","PO BOX 1588, WICHITA FALLS, TX 76307",48485,153858,180418,-98.49,33.9099999
"330",237221304,2014,"WOODLAND HILLS TRAIL ASSOCIATION","6842 N SAM HOUSTON PKWY W, HOUSTON, TX 77064",48201,619547,289248,-95.5278664,29.9369528
"331",741154434,2014,"ASSOCIATION OF TEXAS SOIL AND WATER CONSERVATION DISTRICTS INC","4311 S 31ST ST STE 125, TEMPLE, TX 76502",48027,182388,210952,-97.3733595,31.0578392
"332",142003280,2014,"ENVIRONMENTAL STEWARDSHIP","PO BOX 1423, BASTROP, TX 78602",48021,15562,7499,-97.3152701,30.1104947
"333",453662285,2014,"SOUTH CENTRAL PARTNERSHIP FOR ENERGY EFFICIENCY AS A RESOURCE","3103 BEE CAVES RD STE 135, AUSTIN, TX 78746",48453,490852,1410987,-97.7983477,30.2720883
"334",260440839,2014,"KEEP VICTORIA BEAUTIFUL","3003 N VINE ST, VICTORIA, TX 77901",48469,1342,63690,-97.0089166,28.8197604
"335",205267886,2014,"TEXAS FOUNDATION FOR INNOVATIVE COMMUNITIES INC","PO BOX 1845, AUSTIN, TX 78767",48453,853,227200,-97.6705938,30.4172166
"336",731628865,2014,"GUADALUPE-BLANCO RIVER TRUST","933 E COURT ST, SEGUIN, TX 78155",48187,1569608,181940,-97.953625,29.5686778
"337",746049372,2015,"TEXAS GARDEN CLUBS","6088 BABE ZAHARIAS DR, BEAUMONT, TX 77705",48245,1225367,209184,-94.1464983,30.0232613
"338",260141140,2014,"CLEAN TECHNOLOGY AND SUSTAINABLE INDUSTRIES ORGANIZATION","3925 WEST BRAKER LANE, AUSTIN, TX 78759",48453,57314,52811,-97.7354306,30.3950315
"339",742346318,2014,"KEEP SAN ANTONIO BEAUTIFUL INC","PO BOX 830337, SAN ANTONIO, TX 78283",48029,82657,74137,-98.5030929,29.4134586
"340",760288131,2014,"MOODY GARDENS INC","PO BOX 59, GALVESTON, TX 77553",48167,80044732,52309381,-94.7937786,29.304812
"341",746068250,2014,"BIG BEND NATURAL HISTORY ASSOCIATION INC","PO BOX 196, BG BND NTL PK, TX 79834",48043,543563,539947,-103.2201828,29.2669239
"342",760586373,2014,"FRIENDS OF THE BAYTOWN NATURE CENTER INC","PO BOX 8177, BAYTOWN, TX 77522",48201,14899,5769,-94.9693741,29.769771
"343",750787690,2015,"LAKE LYDIA INC","PO BOX 1484, QUITMAN, TX 75783",48499,449574,133399,-95.464,32.819699
"344",810554715,2014,"NELAC INSTITUTE","PO BOX 2439, WEATHERFORD, TX 76086",48367,3730,875098,-97.7905758,32.7522671
"345",840571239,2014,"TEXAS AUTOMOTIVE RECYCLING ASSOCIATION","PO BOX 3547, GALVESTON, TX 77552",48167,34182,100990,-94.832519,29.2895189
"346",752788771,2014,"CRAPE MYRTLE TRAILS OF MCKINNEY FOUNDATION","6401 SOUTH CUSTER ROAD, MCKINNEY, TX 75070",48085,31942,53260,-96.7324232,33.1382129
"347",463836254,2014,"KEEP YORKTOWN BEAUTIFUL","515 W 1ST ST, YORKTOWN, TX 78164",48123,88826,203507,-97.5101286,28.9737306
"348",455242196,2014,"WATER QUEST INC","PO BOX 2969, ODESSA, TX 79760",48135,47342,59537,-102.3665236,31.8463268
"349",237403757,2014,"ARMAND BAYOU NATURE CENTER INC","PO BOX 58828, HOUSTON, TX 77258",48201,1022262,1011990,-95.3698028,29.7604267
"350",751375644,2015,"LOUISE B BELSTERLING FOUNDATION","7 HALLSHIRE CT, DALLAS, TX 75225",48113,631221,137816,-96.774011,32.8794419
"351",953310318,2015,"ROBINSON ARBORETUM FUND","BANK OF AMERICA NA PO BOX 831, DALLAS, TX 75283",48113,2224560,867063,-96.8037023,32.8370764
"352",751514511,2015,"MARIANNE SCRUGGS GARDEN CLUB OF THE DALLAS WOMANS CLUB","5944 LUTHER LANE, DALLAS, TX 75225",48113,161148,52573,-96.8103383,32.863269
"353",750771007,2014,"TEXAS FORESTRY ASSOCIATION INC","PO BOX 1488, LUFKIN, TX 75902",48005,356837,862242,-94.7235939,31.3374423
"354",746068995,2014,"TEXAS SOCIETY OF PROFESSIONAL SURVEYORS GULF COAST CHAPTER","PO BOX 742213, HOUSTON, TX 77274",48201,15140,28165,-95.4968272,29.7072725
"355",260435585,2014,"BARNETT SHALE ENERGY EDUCATION COUNCIL","777 TAYLOR ST STE 900, FORT WORTH, TX 76102",48439,236094,570042,-97.3321623,32.7518057
"356",43695294,2014,"HOUSTON BOTANIC GARDEN","3701 KIRBY DR STE 992, HOUSTON, TX 77098",48201,859922,95084,-95.41801,29.7331166
"357",352494009,2014,"SOCIETY OF LAKE MANAGEMENT PROFESSIONALS","17950 PRESTON RD STE 980, DALLAS, TX 75252",48085,1940,2000,-96.797571,32.9966427
"358",237375815,2014,"DALLAS ARBORETUM AND BOTANICAL SOCIETY INC","8617 GARLAND RD, DALLAS, TX 75218",48113,111276129,23163437,-96.7139551,32.8241651
"359",510225607,2015,"KINGWOOD GARDEN CLUB","26877 IRON MANOR LN, KINGWOOD, TX 77339",48201,85206,21947,-95.2316636,30.0595717
"360",760183954,2014,"BUFFALO BAYOU PARTNERSHIP INC","1113 VINE ST STE 215, HOUSTON, TX 77002",48201,73170321,5748039,-95.3572376,29.7685113
"361",562375157,2014,"IMAGES FOR CONSERVATION FUND","2112 W UNIVERSITY DR 801, EDINBURG, TX 78539",48215,188599,66326,-98.1854901,26.3040269
"362",742010402,2014,"CHAMPION FOREST FUND INC","5295 HOLLISTER ST, HOUSTON, TX 77040",48201,475912,438835,-95.5069529,29.8440684
"363",201508875,2014,"LANDA GARDENS CONSERVANCY","PO BOX 12243, SAN ANTONIO, TX 78212",48029,971221,197131,-98.4936282,29.4241219
"364",743008249,2014,"NATIONAL NETWORK OF ABORTION FUNDS - THE LILITH FUND","PO BOX 684949, AUSTIN, TX 78768",48453,239982,236417,-97.74,30.27
"365",760377029,2014,"KATY PRAIRIE CONSERVANCY","5615 KIRBY DR STE 867, HOUSTON, TX 77005",48201,34946731,3462877,-95.4180918,29.7220164
"366",742590850,2014,"KEEP HARLINGEN BEAUTIFUL INC","PO BOX 534026, HARLINGEN, TX 78553",48061,57108,105112,-97.6985697,26.2073017
"367",272005123,2014,"NATIONAL OCEAN POLICY COALITION","2211 NORFOLK ST, HOUSTON, TX 77098",48201,85866,160650,-95.4133455,29.7321343
"368",760243519,2014,"GULF COAST POWER ASSOCIATION INC","2800 E WHITESTONE BLV STE120DEPT222, CEDAR PARK, TX 78613",48491,602299,1019777,-97.7854394,30.5324043
"369",273741373,2014,"WHITE ROCK LAKE CONSERVANCY INC","PO BOX 140227, DALLAS, TX 75214",48113,33456,125885,-96.7568815,32.8121674
"370",752550483,2014,"KEEP DENTON BEAUTIFUL INC","1117 RINEY RD, DENTON, TX 76207",48121,33142,71871,-97.14401,33.242672
"371",452782423,2014,"PUREENERGYSPORTS","105 POPPY CT, GEORGETOWN, TX 78626",48491,9344,80535,-97.6644967,30.5912024
"372",760458344,2014,"WOMENS ENERGY NETWORK OF HOUSTON","1707 POST OAK BLVD PMB 112, HOUSTON, TX 77056",48201,553621,553490,-95.46001,29.749344
"373",752254312,2014,"KEEP MESQUITE BEAUTIFUL INC","PO BOX 850137, MESQUITE, TX 75185",48113,30608,47928,-96.5983607,32.7757
"374",760391164,2014,"LAFFITES COVE AT PIRATES BEACH NATURE SOCIETY","PO BOX 160, TOMBALL, TX 77377",48201,292822,72182,-95.6160549,30.0971621
"375",760031884,2014,"CRADLE OF TEXAS CONSERVANCY INC","PO BOX 353, WEST COLUMBIA, TX 77486",48039,724546,209623,-95.6452249,29.1438582
"376",751761481,2014,"DALLAS ECOLOGICAL FOUNDATION","13709 GAMMA RD, DALLAS, TX 75244",48113,924114,339552,-96.8371518,32.9355908
"377",300630886,2014,"SERVICE ORGANIZATION OF THE PINEY WOODS","2950 50TH ST, LUBBOCK, TX 79413",48303,365619,19894098,-101.8787631,33.5493473
"378",751879329,2014,"LAKE GRANBURY AREA BEAUTIFICATION COUNCIL INC","PO BOX 1921, GRANBURY, TX 76048",48221,91049,46591,NA,NA
"379",742607076,2014,"COLORADO RIVER WATCH FOUNDATION","10611 PLATT LN, AUSTIN, TX 78725",48453,342039,464867,-97.6387414,30.233342
"380",201847551,2014,"TRINITY BASIN CONSERVATION FDN","2100 ROSS AVE STE 855, DALLAS, TX 75201",48113,78067,12467,-96.7975695,32.7875067
"381",742055923,2014,"NATIONAL HISPANIC INSTITUTE INC","472 FM 1966, MAXWELL, TX 78656",48055,469340,1578958,-97.800128,29.883532
"382",751909562,2014,"AMERICAN SOCIETY OF LANDSCAPE ARCHITECTS TEXAS CHAPTER","4103 84TH ST, LUBBOCK, TX 79423",48303,347569,413681,-101.9007961,33.5176576
"383",264419008,2014,"ECO ELP INC","PO BOX 3243, EL PASO, TX 79923",48141,35732,50880,-106.459373,31.7818968
"384",741846582,2014,"ASSOC BUILDERS AND CONTRACTORS OF TX GULF COAST","1400 VELASCO BLVD C107, FREEPORT, TX 77541",48039,4166818,565413,-95.3526913,28.9632754
"385",742562764,2014,"KEEP TEMPLE BEAUTIFUL","100 W ADAMS AVE STE 302, TEMPLE, TX 76501",48027,53530,80617,-97.3421193,31.0983961
"386",742742695,2014,"TEXAS LAND DEVELOPERS ASSOC INC","1210 E TYLER AVE, HARLINGEN, TX 78550",48061,14477,128810,-97.6830666,26.1893748
"387",237011870,2014,"HOUSTON AUDUBON SOCIETY INC","440 WILCHESTER BLVD, HOUSTON, TX 77079",48201,6862195,2315479,-95.5699463,29.7714539
"388",237221209,2014,"FORT WORTH BOTANICAL SOCIETY INC SOCIETY","3220 BOTANIC GARDEN BLVD, FT WORTH, TX 76107",48439,3676935,1535907,-97.363807,32.73537
"389",746075031,2013,"BAYOU PRESERVATION ASSOCIATION INC","PO BOX 131563, HOUSTON, TX 77219",48201,889643,633888,-95.4022965,29.7531168
"390",455017295,2014,"WHAT-A-KITE FOUNDATION INC","205 CROWN COLONY DR, LUFKIN, TX 75901",48005,141729,7643,-94.7269479,31.274491
"391",900648270,2014,"PARAPLEGICS ON INDEPENDENT NATURE TRIPS","403 PACIFIC AVE, TERRELL, TX 75160",48257,44794,625845,-96.2831375,32.7405023
"392",464285669,2014,"BAY AREA COASTAL PROTECTION ALLIANCE INC","18045 SATURN LN, HOUSTON, TX 77058",48201,152356,504000,-95.0918746,29.5495319
"393",742932637,2014,"BELL COUNTY MASTER GARDENERS ASSOCIATION INC","1605 NORTH MAIN ST, BELTON, TX 76513",48027,26542,60456,-97.4569829,31.0727448
"394",742974140,2014,"VICTORIA COUNTY MASTER GARDENER ASSOCIATION","PO BOX 1723, VICTORIA, TX 77902",48469,200063,104215,-97.01,28.8
"395",800746629,2014,"ALLIANCE FOR CONSERVATION EASEMENTS","14781 MEMORIAL DR, HOUSTON, TX 77079",48201,45739,37314,-95.6121738,29.7709536
"396",850488313,2014,"TEXAS LAND TRUST COUNCIL","PO BOX 2677, WIMBERLEY, TX 78676",48209,482732,405921,-98.0986204,29.9974362
"397",273340044,2014,"GREENBELT ALLIANCE OF DENTON COUNTY","2459 W BLACKJACK RD, AUBREY, TX 76227",48121,59972,107982,-97.0208859,33.3131093
"398",741211684,2014,"SATTERWHITE DUFFY LAKE INC","PO BOX 755, WEST COLUMBIA, TX 77486",48039,25730,70979,-95.6452249,29.1438582
"399",742488227,2014,"VALLEY LAND FUND INC","2400 N 10TH ST STE A, MCALLEN, TX 78501",48215,2262395,190887,-98.2260402,26.2252006
"400",752793697,2014,"KEEP ROWLETT BEAUTIFUL INC","PO BOX 1992, ROWLETT, TX 75030",48113,87103,330004,-96.5709471,32.9053964
"401",741617540,2014,"MEDINA LAKE BETTERMENT ASSOCIATION","11225 PARK ROAD 37, LAKEHILLS, TX 78063",48019,280059,107383,-98.9454924,29.5889883
"402",742053921,2014,"TEXAS ECONOMIC DEVELOPMENT COUNCIL INC","1601 RIO GRANDE ST STE 455, AUSTIN, TX 78701",48453,885081,1597103,-97.7454473,30.2800684
"403",237357269,2014,"TEXAS AIRSTREAM HARBOR INC TAHI","2710 S MEDFORD DR, LUFKIN, TX 75901",48005,101347,71061,-94.7029001,31.317648
"404",134249347,2014,"SOUTH TEXAS WATER UTILITY MANAGERS ASSOCIATION","PO BOX 621, RIO HONDO, TX 78583",48061,12249,26125,-97.5768441,26.2327099
"405",746059311,2014,"SOCIETY OF INDEPENDENT PROFESSIONAL EARTH SCIENTISTS","4925 GREENVILLE AVE STE 1106, DALLAS, TX 75206",48113,93961,342927,-96.7710585,32.8472665
"406",742601251,2015,"DAVIS MOUNTAINS TRANS PECOS HERITAGE ASSOCIATION","PO BOX 1209, ALPINE, TX 79831",48043,11611,37541,-103.6610115,30.3584919
"407",752212157,2014,"EVERETT E AND ORABETH K WOODS FOUNDATION","PO BOX 5749, ABILENE, TX 79608",48441,135260,16085,-99.75,32.42
"408",261564909,2014,"CONSERVE EAST TEXAS INC","PO BOX 154540, LUFKIN, TX 75915",48005,709781,101,-94.7623534,31.339412
"409",760327389,2014,"HERMANN PARK CONSERVANCY","6201 A HERMANN PARK DRIVE, HOUSTON, TX 77030",48201,33380470,13090622,-95.3886536,29.7142342
"410",201991645,2014,"BEAU THERIOT COMANCHE CANYON PRESERVE LANDS INC","6535 COMANCHE TRL, AUSTIN, TX 78732",48453,8480380,63849,-97.8709185,30.4043619
"411",20749601,2014,"TEXAS ENVIRONMENTAL JUSTICE ADVOCACY","6733 HARRISBURG BLVD, HOUSTON, TX 77011",48201,68464,175772,-95.3072691,29.7375486
"412",752234375,2014,"KEEP ATHENS BEAUTIFUL","201 W CORSICANA SUITE 4, ATHENS, TX 75751",48213,32186,72169,-95.8567337,32.2039868
"413",752337868,2014,"TEXAS CONSERVATION FUND","PO BOX 58405, HOUSTON, TX 77258",48201,93371,109072,-95.3698028,29.7604267
"414",742932549,2014,"KEYSTONE HERITAGE PARK INC","PO BOX 221527, EL PASO, TX 79913",48141,1066366,49338,-106.5613974,31.8386746
"415",481284000,2014,"COASTAL PRAIRIE COALITION GRAZING LANDS CONSERVATION INITIATIVE INC","PO BOX 2942, VICTORIA, TX 77902",48469,51009,64281,-97.01,28.8
"416",742121275,2014,"LAKE MCQUEENEY PROP OWNERS ASSN INC DBA FRIENDS OF LAKE MCQUEENEY","PO BOX 781, MCQUEENEY, TX 78123",48187,168243,45367,-98.0410634,29.6087981
"417",510187748,2015,"DALLAS GARDEN CLUB OF THE DALLAS","7000 PARK LN, DALLAS, TX 75225",48113,216889,368193,-96.7846237,32.8728447
"418",760247588,2014,"ARMAND BAYOU NATURE CENTER FOUNDATION CO NEIL THOMAS","1301 MCKINNEY ST, HOUSTON, TX 77010",48201,1280027,108289,-95.3615297,29.7554839
"419",274272004,2014,"DEVILS RIVER CONSERVANCY","401 CONGRESS AVE STE 1600, AUSTIN, TX 78701",48453,12802,145270,-97.7428161,30.266699
"420",274374251,2015,"MAGNOLIA GARDEN CLUB","148 S DOWLEN RD, BEAUMONT, TX 77707",48245,100448,81387,-94.1730943,30.0730332
"421",760655841,2015,"MEMORIAL PARK CONSERVANCY INC","7575 N PICNIC, HOUSTON, TX 77007",48201,1939810,1694621,-95.4477855,29.767053
"422",742094805,2015,"KINGS POINT TRAIL ASSOCIATION","1075 KINGWOOD DR STE 100, KINGWOOD, TX 77339",48201,839374,232712,-95.2407799,30.0505449
"423",454908468,2014,"BISBEES FISH AND WILDLIFE CONSERVATION FUND INC","2300 MCDERMOTT RD 200382, PLANO, TX 75025",48085,137109,1354629,-96.7342531,33.1004828
"424",205675573,2015,"CYPRESS WOODS BAND BOOSTER ASSOCIATION","PO BOX 1864, CYPRESS, TX 77410",48201,117133,155617,-95.6803464,29.9751576
"425",760046318,2015,"TREES FOR HOUSTON","PO BOX 270477, HOUSTON, TX 77277",48201,2603086,1727547,-95.6049489,29.7461902
"426",760668230,2014,"FORT BEND COUNTY MASTER GARDENERS INC","1402 BAND RD, ROSENBERG, TX 77471",48157,110847,84113,-95.8097985,29.5165904
"427",746075031,2014,"BAYOU PRESERVATION ASSOCIATION INC","2990 RICHMOND AVE STE 500, HOUSTON, TX 77098",48201,714107,406312,-95.4231703,29.7344964
"428",201976730,2015,"FORUM OF CIVICS FOUNDATION","2503 WESTHEIMER RD, HOUSTON, TX 77098",48201,1052799,241901,-95.417969,29.7420042
"429",752111043,2015,"JUNIOR GROUP OF THE DALLAS GARDEN CLUB","4222 POTOMAC AVE, DALLAS, TX 75205",48113,65469,35343,-96.8054333,32.8378366
"430",204467651,2014,"HOMEBASE TEXAS","500 W BEN WHITE BLVD STE 100, AUSTIN, TX 78704",48453,1777153,1098984,-97.7679018,30.226645
"431",751840314,2015,"FORT WORTH GARDEN CLUB INC","3220 BOTANIC GARDEN BLVD, FORT WORTH, TX 76107",48439,3501538,1490441,-97.3636032,32.7404284
"432",800541645,2015,"MEMORIAL PARK CONSERVANCY ENDOWMENT","7575 N PICNIC, HOUSTON, TX 77007",48201,234817,66829,-95.4477855,29.767053
"433",742428376,2014,"SAN MARCOS RIVER FOUNDATION","PO BOX 1393, SAN MARCOS, TX 78667",48209,1222334,119750,-97.9416965,29.8841602
"434",742178792,2014,"SAN ANTONIO BOTANICAL GARDEN SOCIETY INC","555 FUNSTON PL, SAN ANTONIO, TX 78209",48029,12979261,6308565,-98.4587271,29.4588656
"435",752580047,2015,"KEEP IRVING BEAUTIFUL","3000 ROCK ISLAND RD, IRVING, TX 75060",48113,30380,75588,-96.9871941,32.8149515
"436",421602181,2015,"SAN ANTONIO RIVER FOUNDATION","PO BOX 830045, SAN ANTONIO, TX 78283",48029,7510864,3317345,-98.5030929,29.4134586
"437",200576859,2014,"BROWNSVILLE BOTANICAL GARDENS AND ARBORETUM","205 PECAN BLVD, MCALLEN, TX 78501",48215,10527,160350,-98.2194854,26.216319
"438",752351673,2015,"CENTER FOR LEGISLATIVE ENERGY AND ENVIRONMENTAL RESEARCH","5400 LBJ FREEWAY, DALLAS, TX 75240",48113,219772,250188,-96.8167378,32.924654
"439",743020979,2014,"METROPOLITAN PARTNERSHIP FOR ENERGY DBA BUILD SA GREEN","118 BROADWAY, SAN ANTONIO, TX 78205",48029,16801,344247,-98.487599,29.4272194
"440",752361817,2015,"SOLID WASTE ASSOCIATION OF NORTH AM TEXAS LONE STAR CHAPTER","PO BOX 1088, AUSTIN, TX 78767",48453,263711,209763,-97.739694,30.2694174
"441",223880229,2014,"TEXAS ENVIRONMENTAL RESEARCH CONSORTIUM","711 LOUISIANA ST, HOUSTON, TX 77002",48201,33129,11252,-95.3656692,29.7601541
"442",521812626,2014,"CASE MANAGEMENT SOCIETY OF AMERICA TX-HOUSTON-GULF COAST","PO BOX 130278, THE WOODLANDS, TX 77393",48339,21941,80776,-95.51,30.15
"443",752215558,2014,"RIVER LEGACY FOUNDATION","703 NW GREEN OAKS BLVD, ARLINGTON, TX 76006",48439,1862844,909327,-97.115287,32.7834833
"444",454616548,2014,"PAISANO SPRINGS FOUNDATION","364 MENGER SPGS, BOERNE, TX 78006",48259,1482448,20835,-98.7294045,29.7627859
"445",742258347,2014,"ASSOCIATED BUILDERS AND CONTRACTORS - TEXAS COASTAL BEND","PO BOX 2584, CORP CHRISTI, TX 78403",48355,844047,468943,-97.3984652,27.797345
"446",751666070,2014,"KEEP LONGVIEW BEAUTIFUL INC","PO BOX 552, LONGVIEW, TX 75606",48183,76805,93643,-94.730502,32.462314
"447",752655909,2015,"NORTH TEXAS SECTION OF THE WATER ENVIRONMENT ASSOCIATION OF TEXAS","6001 W INTERSTATE 20 STE 219, ARLINGTON, TX 76017",48439,281480,127056,-97.2020906,32.6740853
"448",263749177,2014,"SAN ANTONIO BAY FOUNDATION","933 E COURT ST, SEGUIN, TX 78155",48187,30782,189852,-97.953625,29.5686778
"449",451864591,2014,"TAKING CARE OF TEXAS","3500 JEFFERSON ST STE 301, AUSTIN, TX 78731",48453,406881,648130,-97.7518946,30.3080252
"450",251907558,2014,"GREATER EDWARDS AQUIFER ALLIANCE","PO BOX 15618, SAN ANTONIO, TX 78212",48029,55979,243969,-98.4936282,29.4241219
"451",742886586,2014,"TEXAS HILL COUNTRY RIVER REGION INC","PO BOX 52, CONCAN, TX 78838",48463,430202,371586,-99.7214883,29.5014937
"452",271310367,2014,"CYBERWAYS AND WATERWAYS","1607 WATERSTON AVE, AUSTIN, TX 78703",48453,3258,131865,-97.7594328,30.2807395
"453",237109965,2014,"STREAMS AND VALLEYS INC","PO BOX 101373, FORT WORTH, TX 76185",48439,1290568,381276,-97.36502,32.75094
"454",465531708,2014,"RENEWABLE ENERGY FOR BETTER LIFE FOUNDATION","7523 MIDBURY DR, DALLAS, TX 75230",48113,10000,10000,-96.7773777,32.9022129
"455",760440865,2014,"GULF COAST ASSOCIATION OF GEOLOGICAL SOCIETIES INC","PO BOX 79514, HOUSTON, TX 77279",48201,658080,635645,-95.3698028,29.7604267
"456",273114002,2014,"H2O4 TEXAS COALITION","3305 SILVERLEAF DR, AUSTIN, TX 78757",48453,38686,308619,-97.7454261,30.355664
"457",742613666,2014,"USEFUL WILD PLANTS INC","2612 SWEENEY LN, AUSTIN, TX 78723",48453,407940,451181,-97.6815401,30.3079529
"458",465657859,2014,"TEXAS COUNCIL OF ROYALTY OWNERS","1122 COLORADO ST APT 1510, AUSTIN, TX 78701",48453,36017,88500,-97.7428714,30.2740837
"459",742350796,2014,"LAKES MASTER ASSOCIATION INC","7502 VENICE DR, CORP CHRISTI, TX 78413",48355,226773,223687,-97.4129361,27.6760674
"460",746131894,2014,"HONDO GARDEN CLUB INC","1108 28TH ST, HONDO, TX 78861",48325,312341,185010,-99.1405343,29.3395369
"461",760279876,2014,"GALVESTON BAY FOUNDATION INC","1100 HERCULES AVE STE 200, HOUSTON, TX 77058",48201,3650321,4684279,-95.1119,29.5544207
"462",752244319,2014,"KEEP ODESSA BEAUTIFUL INC","PO BOX 3864, ODESSA, TX 79760",48135,53819,10822,-102.3665236,31.8463268
"463",61730795,2014,"US GREEN BUILDING COUNCIL NORTH TEXAS CHAPTER","1909 WOODALL RODGERS FWY STE 100, DALLAS, TX 75201",48113,90705,211492,-96.8031592,32.7890688
"464",270505879,2014,"INTERNATIONAL MARITIME AND ENERGY CENTER OF HOUSTON","203 IVY AVE, DEER PARK, TX 77536",48201,28441,0,-95.1213024,29.7088947
"465",464255110,2014,"LONE STAR COASTAL ALLIANCE","PO BOX 131635, HOUSTON, TX 77219",48201,10000,10000,-95.4022965,29.7531168
"466",752352954,2014,"SAN ANGELO FRIENDS OF THE ENVIRONMENT","702 WAREHOUSE RD, SAN ANGELO, TX 76903",48451,162267,72117,-100.4452427,31.4283134
"467",742117354,2014,"LEXINGTON WOODS OWNERS COMMITTEE INC","PO BOX 681007, HOUSTON, TX 77268",48201,322451,433285,-95.5087962,30.0145474
"468",462902511,2014,"SFCU FOUNDATION","PO BOX 920719, HOUSTON, TX 77292",48201,19780,175010,-95.43,29.83
"469",263638933,2014,"TEXAS INSTITUTE","1709 TRIPLE CROWN LN, PLANO, TX 75093",48085,2803,0,-96.8236694,33.0240033
"470",760656365,2014,"CARLTON WOODS ASSOCIATION INC","2204 TIMBERLOCH PL STE 180, THE WOODLANDS, TX 77380",48339,2801380,1883731,-95.4699992,30.159091
"471",760602346,2014,"HOUSTON TOMORROW","723 MAIN STREET SUITE 700-52, HOUSTON, TX 77002",48201,22692,312752,-95.3633897,29.7584982
"472",742924400,2014,"COMMUNITY INVESTMENT CORPORATION","PO BOX 4279, AUSTIN, TX 78765",48453,0,728,-97.7437526,30.3040525
"473",870699956,2014,"TOWN LAKE TRAIL FOUNDATION","PO BOX 5195, AUSTIN, TX 78763",48453,1757257,1068349,-97.77,30.3
"474",742934364,2014,"SOLAR SAN ANTONIO","118 BROADWAY, SAN ANTONIO, TX 78205",48029,46896,302496,-98.487599,29.4272194
"475",741918040,2014,"TEXAS MINING AND RECLAMATION ASSOCIATION","100 CONGRESS AVE STE 1100, AUSTIN, TX 78701",48453,383682,1574701,-97.7448532,30.2639807
"476",742714211,2014,"TEXAS ASSOCIATION OF RESOURCE CONSERVATION AND DEVELOPMENT AREAS","PO BOX 2533, VICTORIA, TX 77902",48469,1365314,1597694,-97.01,28.8
"477",741984482,2014,"COASTAL CONSERVATION ASSOCIATION","6919 PORTWEST DR STE 100, HOUSTON, TX 77024",48201,16453582,26489844,-95.4493617,29.7802681
"478",237158154,2015,"HOUSTON ASSOCIATION OF PROFESSIONAL LANDMEN","800 BERING DR STE 120, HOUSTON, TX 77057",48201,741940,772867,-95.4806745,29.7578414
"479",742948145,2014,"HILL COUNTRY CONSERVANCY","PO BOX 163125, AUSTIN, TX 78716",48453,9049967,2929204,-97.8229321,30.2945971
"480",453929881,2014,"MERCURY ONE INC","PO BOX 140489, IRVING, TX 75014",48113,7376824,6576739,-96.97,32.84
"481",455518326,2014,"TEXAS CLEAN ENERGY COALITION","327 CONGRESS AVE STE 450, AUSTIN, TX 78701",48453,7175,250190,-97.7431768,30.2659386
"482",510204049,2014,"WESTCAVE OUTDOOR DISCOVERY CENTER","24814 HAMILTON POOL RD, ROUND MTN, TX 78663",48031,784586,571959,-98.140838,30.339045
"483",751825883,2014,"TEXAS LAND CONSERVANCY","PO BOX 162481, AUSTIN, TX 78716",48453,10242709,1323902,-97.798582,30.2730973
"484",752573928,2014,"LEE PARK AND ARLINGTON HALL CONSERVANCY","PO BOX 190872, DALLAS, TX 75219",48113,290319,2547586,-96.8107577,32.8078864
"485",760621454,2014,"FRIENDS OF THE EDDIE V GRAY WETLANDS EDUCATION CENTER","PO BOX 638, BAYTOWN, TX 77522",48201,45728,50769,-94.9693741,29.769771
"486",742253593,2014,"CROWES NEST FARM INC","10300 TAYLOR LN, MANOR, TX 78653",48453,1086909,175627,-97.5325068,30.3012834
"487",371581800,2015,"GLEN ROSE BAND BOOSTER CLUB","PO BOX 3148, GLEN ROSE, TX 76043",48425,45651,50713,-97.7553061,32.2345872
"488",61693724,2014,"US GREEN BUILDING COUNCIL TEXAS GULF COAST CHAPTER","10401 WESTOFFICE DR, HOUSTON, TX 77042",48201,36168,90657,-95.551474,29.7199302
"489",751495717,2015,"FRIENDS OF THE FORT WORTH NATURE CENTER AND REFUGE INC","9601 FOSSIL RIDGE RD, FORT WORTH, TX 76135",48439,595915,441656,-97.4756516,32.845932
"490",752735104,2015,"PATON FAMILY CHARITABLE FOUNDATION","10 INTREPID CIR, ROCKWALL, TX 75032",48397,83264,23558,-96.4853372,32.8800088
"491",742441468,2015,"SUSTAINABLE FOOD CENTER","2921 E 17TH ST BLDG C, AUSTIN, TX 78702",48453,4544544,1958548,-97.7100801,30.278543
"492",270586701,2014,"CO2 IS GREEN INC","601 JEFFERSON STREET, HOUSTON, TX 77002",48201,5184,10000,-95.3723074,29.7532925
"493",371524180,2014,"CLEANING FOR A REASON","211 S STEMMONS FWY STE G, LEWISVILLE, TX 75067",48121,541824,697102,-97.0093007,33.0456273
"494",741692204,2014,"CITIZENS ENVIRONMENTAL COALITION EDUCATIONAL FUND","PO BOX 702, HOUSTON, TX 77001",48201,41293,118697,-95.37,29.77
"495",742879756,2014,"WIMBERLEY VALLEY WATERSHED ASSOCIATION","PO BOX 2534, WIMBERLEY, TX 78676",48209,2494504,1605509,-98.0986204,29.9974362
"496",760567365,2015,"PECKERWOOD GARDENS CONSERVATION FOUNDATION INC","20571 FM 359 RD, HEMPSTEAD, TX 77445",48473,480306,258474,-96.039607,30.057688
"497",742739793,2014,"COOPERATIVE TEAMWORK AND RECYCLING ASSISTANCE","3355 BEE CAVE RD BLDG 3 SUITE 304, AUSTIN, TX 78746",48453,408513,423452,-97.8032627,30.2751787
"498",742274448,2014,"SOUTH TEXAS BOTANICAL GARDENS AND NATURE CENTER","8545 S STAPLES ST, CORP CHRISTI, TX 78413",48355,1428726,843207,-97.4068542,27.6525155
"499",746060646,2014,"AUSTIN AREA GARDEN CENTER INC","2220 BARTON SPGS RD, AUSTIN, TX 78746",48453,326315,245898,-97.771468,30.2687172
"500",741696145,2014,"ECOLOGY ACTION OF TEXAS","PO BOX 1927, AUSTIN, TX 78767",48453,324928,420176,-97.739694,30.2694174
"501",237243633,2014,"SHERWOOD-ELMGROVE TRAIL ASSOCIATION","1075 KINGWOOD DR STE 100, KINGWOOD, TX 77339",48201,827071,258379,-95.2407799,30.0505449
"502",462191456,2014,"BUILDING CONSERVATION TRUST","6919 PORTWEST DR STE 100, HOUSTON, TX 77024",48201,665707,1253380,-95.4493617,29.7802681
"503",742627643,2014,"ENVIRONMENTAL FUND FOR TEXAS INC","PO BOX 1911, AUSTIN, TX 78767",48453,1458404,1060690,-97.739694,30.2694174
"504",752212157,2015,"EVERETT E AND ORABETH K WOODS FOUNDATION","PO BOX 5749, ABILENE, TX 79608",48441,139113,23165,-99.75,32.42
"505",263299387,2014,"FORT BEND GREEN","1 FLUOR DANIEL DR, SUGAR LAND, TX 77478",48157,145827,75412,-95.6262453,29.6053346
"506",741708558,2014,"GREENWOOD FOREST FUND INC","12700 CHAMPION FOREST DR, HOUSTON, TX 77066",48201,1203498,890948,-95.5100257,29.9765915
"507",750309036,2014,"CCA TEXAS FUND","6919 PORTWEST DR STE 100, HOUSTON, TX 77024",48201,9509545,2536046,-95.4493617,29.7802681
"508",752154523,2015,"ANGELINA BEAUTIFULCLEAN","PO BOX 1606, LUFKIN, TX 75902",48005,65404,137102,-94.7235939,31.3374423
"509",742600978,2015,"BEXAR COUNTY MASTER GARDENERS INC","3355 CHERRY RIDGE ST STE 208, SAN ANTONIO, TX 78230",48029,295893,155869,-98.5480286,29.5097532
"510",752101234,2014,"TURTLE CREEK ASSOCIATION","3609 CEDAR SPRINGS RD STE 101, DALLAS, TX 75219",48113,262043,324477,-96.8073343,32.8076371
"511",742681873,2014,"CENTRAL TEXAS RESOURCE CONSERVATION AND DEVELOPMENT COUNCIL INC","400 PORTER ST, TAYLOR, TX 76574",48491,13764,22531,-97.4079734,30.5714066
"512",742645332,2015,"VALLEY PROUD ENVIRONMENTAL COUNCIL","513 E JACKSON ST, HARLINGEN, TX 78550",48061,33427,113088,-97.6906359,26.1930745
"513",270712564,2014,"JOHN BUNKER SANDS WETLAND CENTER INC","2101 CEDAR SPRINGS RD STE 1600, DALLAS, TX 75201",48113,1928154,424093,-96.8063384,32.7940761
"514",237303703,2014,"INTERNATIONAL WATER RESOURCES ASSOC","1515 COMMERCE ST, FORT WORTH, TX 76102",48439,384138,310624,-97.3255814,32.7485064
"515",760008423,2015,"GARDEN CLUB OF HOUSTON","4212 SAN FELIPE BOX 486, HOUSTON, TX 77027",48201,659070,424863,-95.4492593,29.7470139
"516",461195052,2014,"KIDS ON THE LAND INC","4004 GATEWAY DR STE 180, COLLEYVILLE, TX 76034",48439,38735,87056,-97.1042703,32.8841517
"517",742168039,2015,"TEXAS VEGETABLE ASSOCIATION","901 BUSINESS PARK DR, MISSION, TX 78572",48215,42810,81703,-98.3175488,26.1986962
"518",742772459,2015,"TEXAS GULF COAST SUPERINTENDENTS ASSOCIATION","PO BOX 271352, CORP CHRISTI, TX 78427",48355,38727,40231,-97.4148358,27.6956307
"519",752901907,2015,"FORT WORTH WILDLIFE CONSERVATION FUND","201 MAIN ST STE 2300, FORT WORTH, TX 76102",48439,6094864,109938,-97.331867,32.7563405
"520",421573695,2015,"HOUSTON WILDERNESS","550 WESTCOTT ST STE 305, HOUSTON, TX 77007",48201,296734,588492,-95.4213244,29.7669429
"521",262959996,2015,"WOODS PROJECT","6 SLEEPY OAKS CIR, HOUSTON, TX 77024",48201,411233,781069,-95.5063988,29.7759939
"522",747055759,2015,"KEEP TEXAS BEAUTIFUL INC","8850 BUSINESS PARK DR STE 200, AUSTIN, TX 78759",48453,992665,863240,-97.7412397,30.3784744
"523",331095299,2015,"GALVESTON ISLAND NATURE TOURISM COUNCIL","PO BOX 1468, GALVESTON, TX 77553",48167,213774,200974,-94.79545,29.3026
"524",300276347,2014,"HOUSTON REGIONAL MONITORING","3720 DECKER DR, BAYTOWN, TX 77520",48201,3333474,2939707,-95.0065221,29.7648933
"525",742487218,2014,"MCBRIDE CONSERVATION FUND FOUNDATION","PO BOX 80022, AUSTIN, TX 78708",48453,609907,196388,-97.7051165,30.3911673
"526",760663372,2014,"PRODUCED WATER SOCIETY INC","PO BOX 590102, HOUSTON, TX 77259",48201,98623,174995,-95.1403062,29.576326
"527",750968821,2014,"AMARILLO BOTANICAL GARDENS","1400 STREIT DR, AMARILLO, TX 79106",48375,6401966,1193653,-101.9152488,35.1977481
"528",741648152,2014,"NORCHESTER MAINTENANCE FUND INC CO CHAPARRAL MANAGEMENT COMPANY","11000 CORPORATE CENTRE DR STE 150, HOUSTON, TX 77041",48201,235792,349406,-95.5603333,29.8416488
"529",752390840,2014,"EAST TEXAS ARBORETUM AND BOTANICAL SOCIETY INC","1601 PATTERSON RD, ATHENS, TX 75751",48213,1573540,206211,-95.8796326,32.2127698
"530",201111056,2014,"TEXAS BOTANICAL GARDENS AND N AMERICAN INTERPRETIVE CENTER","PO BOX 513, GOLDTHWAITE, TX 76844",48333,1130625,300235,-98.5708763,31.4498855
"531",742538984,2014,"RIVERSIDE NATURE CENTER ASSOCIATION","150 FRANCISCO LEMOS ST S, KERRVILLE, TX 78028",48265,974057,206140,-99.1486854,30.0501276
"532",760209022,2014,"AUDUBON DOCENT GUILD","440 WILCHESTER BLVD, HOUSTON, TX 77079",48201,76874,101919,-95.5699463,29.7714539
"533",742590850,2015,"KEEP HARLINGEN BEAUTIFUL INC","PO BOX 534026, HARLINGEN, TX 78553",48061,49962,81434,-97.6985697,26.2073017
"534",841512096,2014,"GREAT PLAINS RESTORATION COUNCIL","PO BOX 1206, FORT WORTH, TX 76101",48439,30257,89725,-97.3291991,32.7465982
"535",200627004,2014,"NATIONAL NETWORK OF ABORTION FUNDS","8401 N IH35 SUITE 1A, AUSTIN, TX 78753",48453,0,0,-97.6942804,30.3471723
"536",742569827,2015,"TREEFOLKS INC","PO BOX 1395, DEL VALLE, TX 78617",48453,264106,846506,-97.6472349,30.2091069
"537",760372678,2014,"UNDERGROUND CONSTRUCTION TECHNOLOGY ASSO FKA GULF COAST TRENCHLESS ASSOCIATION","1233 WEST LOOP S STE 900, HOUSTON, TX 77027",48201,66535,99779,-95.4547221,29.756186
"538",752243795,2015,"WOMENS COUNCIL OF THE DALLAS ARBORETUM AND BOTANICAL GARDEN","47 HIGHLAND PARK VLG STE 200, DALLAS, TX 75205",48113,1154051,616511,-96.8055857,32.8364039
"539",751954862,2015,"WOODS CEMETERY ASSOCIATION","127 COUNTY ROAD 4262, TENAHA, TX 75974",48419,256404,13523,-94.4233956,30.7364128
"540",752603041,2015,"PINEY WOODS REGIONAL ADVISORY COUNC","100 E FERGUSON ST STE 708, TYLER, TX 75702",48423,322952,1033230,-95.3002043,32.3521838
"541",203287015,2015,"CALM AIR VISIBILITY UNLIMITED","941 W BYRD BLVD STE 101, UNIVERSAL CTY, TX 78148",48029,221485,322134,-98.3033266,29.5413977
"542",200627004,2015,"NATIONAL NETWORK OF ABORTION FUNDS","8401 N IH35 SUITE 1A, AUSTIN, TX 78753",48453,79401,160932,-97.6942804,30.3471723
"543",751057918,2015,"TEXAS GARDEN CLUBS INC","3111 OLD GARDEN RD, FORT WORTH, TX 76107",48439,835693,156516,-97.3635705,32.738796
"544",752876262,2015,"DALLAS COUNTY AUDUBON SOCIETY INC DBA AUDUBON DALLAS","PO BOX 12713, DALLAS, TX 75225",48113,822203,100990,-96.7969879,32.7766642
"545",731628865,2015,"GUADALUPE-BLANCO RIVER TRUST","933 E COURT ST, SEGUIN, TX 78155",48187,4099460,2687504,-97.953625,29.5686778
"546",113736286,2015,"NATIONAL NETWORK OF ABORTION FUNDS TEXAS EQUAL ACCESS FUND","501 WYNNEWOOD VILLAGE 386, DALLAS, TX 75224",48113,94124,199547,-96.8310164,32.72397
"547",741145998,2015,"RIVER OAKS GARDEN CLUB","2503 WESTHEIMER RD, HOUSTON, TX 77098",48201,1553261,927787,-95.417969,29.7420042
"548",750974342,2015,"TEXAS DISCOVERY GARDENS","PO BOX 152537, DALLAS, TX 75315",48113,440860,1210406,-96.7690925,32.773792
"549",237357269,2015,"TEXAS AIRSTREAM HARBOR INC TAHI","2710 S MEDFORD DR, LUFKIN, TX 75901",48005,107549,71578,-94.7029001,31.317648
"550",742250898,2015,"ALAMO HEIGHTS-TERRELL HILLS GARDEN CLUB INC","5108 BROADWAY ST STE 216, SAN ANTONIO, TX 78209",48029,130643,88804,NA,NA
"551",751761481,2015,"DALLAS ECOLOGICAL FOUNDATION","PO BOX 543305, DALLAS, TX 75354",48113,1567072,952710,-96.7949273,32.9238202
"552",746068250,2015,"BIG BEND NATURAL HISTORY ASSOCIATION INC","PO BOX 196, BG BND NTL PK, TX 79834",48043,601142,632412,-103.2201828,29.2669239
"553",742607076,2015,"COLORADO RIVER WATCH FOUNDATION","10611 PLATT LN, AUSTIN, TX 78725",48453,326169,434889,-97.6387414,30.233342
"554",237039786,2015,"FOUNDERS GARDEN CLUB OF DALLAS","25 HIGHLAND PARK VLG STE 100-343, DALLAS, TX 75205",48113,238523,82352,-96.806813,32.8355005
"555",462705100,2015,"SHOAL CREEK CONSERVANCY","701 W 7TH ST, AUSTIN, TX 78701",48453,310287,312944,-97.749751,30.270791
"556",362797811,2015,"WOMENS COUNCIL GARDEN OF THE DALLAS ARBORETUM AND BOTANICAL SOCIETY","200 CRESCENT CT STE 1200, DALLAS, TX 75201",48113,1305580,290936,-96.8039079,32.7936538
"557",760327389,2015,"HERMANN PARK CONSERVANCY","6201 A HERMANN PARK DRIVE, HOUSTON, TX 77030",48201,26355247,13847232,-95.3886536,29.7142342
"558",742550843,2015,"RECYCLING ALLIANCE OF TEXAS","6500 TRACOR LN, AUSTIN, TX 78725",48453,58032,141564,-97.6625256,30.2780108
"559",756423660,2015,"BAIRD FAMILY CHARITABLE TRUST","1701 N GREENVILLE AVE STE 500, RICHARDSON, TX 75081",48113,667745,378938,-96.7267391,32.9568019
"560",272005123,2015,"NATIONAL OCEAN POLICY COALITION","2211 NORFOLK ST, HOUSTON, TX 77098",48201,77039,199400,-95.4133455,29.7321343
"561",460809569,2015,"INTERNATIONAL SOIL AND WATER ENVIRONMENTAL EDUCATION PROGRAM INC","2008 CAMPBELL CT, COLLEGE STA, TX 77845",48041,104950,60720,-96.2134985,30.5713737
"562",452609167,2015,"COASTAL PRAIRIE PARTNERSHIP","PO BOX 540342, HOUSTON, TX 77254",48201,3254,21068,-95.41,29.68
"563",830462989,2015,"POSSUM KINGDOM LAKE PRESERVATION ASSOCIATION","16901 DALLAS PKWY STE 116, ADDISON, TX 75001",48113,120,0,-96.8298475,32.982044
"564",751909562,2015,"AMERICAN SOCIETY OF LANDSCAPE ARCHITECTS TEXAS CHAPTER","4103 84TH ST, LUBBOCK, TX 79423",48303,466079,458352,-101.9007961,33.5176576
"565",260440839,2015,"KEEP VICTORIA BEAUTIFUL","3003 N VINE ST, VICTORIA, TX 77901",48469,14164,81772,-97.0089166,28.8197604
"566",752550483,2015,"KEEP DENTON BEAUTIFUL INC","608 E HICKORY ST STE 130, DENTON, TX 76205",48121,72820,136664,-97.1249176,33.2140824
"567",562518503,2015,"FRIENDS OF THE BRAZOS RIVER INC","6336 GOLIAD AVE, DALLAS, TX 75214",48113,7338,77951,-96.7544752,32.8179175
"568",471772600,2015,"KEEPAMERICACLEANORG","3119 TIMBER VIEW DR, SUGAR LAND, TX 77479",48157,0,1000,-95.5981026,29.5761185
"569",746388418,2015,"FORMOSA PLASTICS ENVIRONMENTAL TRUS","PO BOX 7, PORT LAVACA, TX 77979",48057,912049,25171,-96.6421835,28.6170127
"570",754213005,2015,"NEW BRAUNFELS CONSERVATION SOCIETY FOUNDATION TRUST","1300 CHURCHILL DR, NEW BRAUNFELS, TX 78130",48091,315448,56912,-98.0975978,29.7080239
"571",201991645,2015,"BEAU THERIOT COMANCHE CANYON PRESERVE LANDS INC","6535 COMANCHE TRL, AUSTIN, TX 78732",48453,8485741,58841,-97.8709185,30.4043619
"572",916310582,2015,"EVA AND ARRA WOODS CHARITABLE TRUST","BANK OF AMERICA NA PO BOX 831, DALLAS, TX 75283",48113,1137001,90740,-96.8037023,32.8370764
"573",237174515,2015,"LITTLE RIVER ACAD IMPROVEMENT ASSOC","PO BOX 456, LTL RVR ACAD, TX 76554",48027,126514,7357,-97.3624598,30.9727824
"574",202320697,2015,"CRIGHTON WOODS HOMEOWNERS ASSN INC","3500 W DAVIS ST STE 190, CONROE, TX 77304",48339,219400,105526,-95.4883088,30.3231083
"575",742768391,2015,"CLEAN AIR FORCE OF CENTRAL TEXAS","PO BOX 29295, AUSTIN, TX 78755",48453,81263,112759,-97.7430608,30.267153
"576",208867074,2015,"GREENS BAYOU CORRIDOR COALITION","16945 NORTHCHASE DR STE 1900, HOUSTON, TX 77060",48201,746662,803011,-95.4069631,29.9474849
"577",760546145,2015,"MATAGORDA COUNTY BIRDING NATURE CTR","PO BOX 2212, BAY CITY, TX 77404",48321,807515,44816,-95.9671658,28.9643278
"578",300028134,2015,"DEVILS SINKHOLE SOCIETY INC","PO BOX 97, ROCKSPRINGS, TX 78880",48137,65290,42613,-100.2053582,30.0157647
"579",237011870,2015,"HOUSTON AUDUBON SOCIETY INC","440 WILCHESTER BLVD, HOUSTON, TX 77079",48201,7095240,1436452,-95.5699463,29.7714539
"580",680554522,2015,"WILLIAMSON COUNTY CONSERVATION FOUNDATION INC","219 PERRY MAYFIELD, LEANDER, TX 78641",48491,0,0,-97.7620149,30.5675833
"581",820377903,2015,"WESTERN REGIONAL ENVIRONMENTAL EDUCATION COUNCIL DBA COUNCIL FOR ENVIRONMENTAL ED","5555 MORNINGSIDE DR STE 212, HOUSTON, TX 77005",48201,304576,525044,-95.4146548,29.7162019
"582",750399805,2015,"LONG GLADE LAKE INC","12900 COUNTY ROAD 2127 N LOT 58, HENDERSON, TX 75652",48401,535606,31952,-94.6589808,32.3263135
"583",741617540,2015,"MEDINA LAKE BETTERMENT ASSOCIATION","PO BOX 404, LAKEHILLS, TX 78063",48019,334600,131549,-98.9430859,29.604672
"584",750975500,2015,"AMERICAN ASSOCIATION OF PROFESSIONAL LANDMEN INC","800 FOURNIER ST, FORT WORTH, TX 76102",48439,35650728,18341664,-97.3445518,32.7505138
"585",142003280,2015,"ENVIRONMENTAL STEWARDSHIP","PO BOX 1423, BASTROP, TX 78602",48021,13456,33190,-97.3152701,30.1104947
"586",742690768,2015,"KEEP MCALLEN BEAUTIFUL INC","PO BOX 220, MCALLEN, TX 78505",48215,62101,211383,-98.23,26.2
"587",260573774,2015,"THROCKMORTON BEAUTIFICATION COMMITTEE","104 E HIGH ST, THROCKMORTON, TX 76483",48447,200851,867826,-99.1769487,33.1801588
"588",263299387,2015,"FORT BEND GREEN","1 FLUOR DANIEL DR, SUGAR LAND, TX 77478",48157,171754,76018,-95.6262453,29.6053346
"589",752943956,2015,"NATIONAL GRAZING LANDS COALITION","PO BOX 1477, BOWIE, TX 76230",48337,221082,535895,-97.8486457,33.5589953
"590",742488227,2015,"VALLEY LAND FUND INC","2400 N 10TH ST STE A, MCALLEN, TX 78501",48215,2668245,618366,-98.2260402,26.2252006
"591",134249347,2015,"SOUTH TEXAS WATER UTILITY MANAGERS ASSOCIATION","PO BOX 621, RIO HONDO, TX 78583",48061,14685,24349,-97.5768441,26.2327099
"592",742631397,2015,"FRIENDS OF THE COLORADO RIVER FOUNDATION","PO BOX 50029, AUSTIN, TX 78763",48453,660581,861703,-97.7430608,30.267153
"593",752254312,2015,"KEEP MESQUITE BEAUTIFUL INC","PO BOX 850137, MESQUITE, TX 75185",48113,27334,37687,-96.5983607,32.7757
"594",273741373,2015,"WHITE ROCK LAKE CONSERVANCY INC","PO BOX 140227, DALLAS, TX 75214",48113,107685,135582,-96.7568815,32.8121674
"595",274272004,2015,"DEVILS RIVER CONSERVANCY","401 CONGRESS AVENUE, AUSTIN, TX 78701",48453,1156,52932,-97.7428161,30.266699
"596",760617443,2015,"NORTH AMERICAN PROCESS TECHNOLOGY ALLIANCE","1501 N AMBURN RD STE 3, TEXAS CITY, TX 77591",48167,366594,361200,-95.0041672,29.3966703
"597",260106908,2015,"HILL COUNTRY ALLIANCE","15315 W HIGHWAY 71, AUSTIN, TX 78738",48453,436037,498822,-97.9829724,30.3154087
"598",741946081,2015,"HOUSTON CLEAN CITY COMMISSION INC","3000 RICHMOND AVE STE 350, HOUSTON, TX 77098",48201,118968,612891,-95.4239434,29.7345431
"599",742121275,2015,"LAKE MCQUEENEY PROP OWNERS ASSN INC DBA FRIENDS OF LAKE MCQUEENEY","PO BOX 781, MCQUEENEY, TX 78123",48187,185319,39330,-98.0410634,29.6087981
"600",760557498,2015,"BAYOU LAND CONSERVANCY","10330 LAKE RD STE J, HOUSTON, TX 77070",48201,1626823,387691,-95.5800014,30.0030291
"601",800927243,2016,"WATERFOWL PRESERVATION ALLIANCE INC CO DJ SEIDEL","7324 SOUTHWEST FWY STE 610, HOUSTON, TX 77074",48201,5884,157513,-95.5181819,29.7018321
"602",743020979,2015,"METROPOLITAN PARTNERSHIP FOR ENERGY DBA BUILD SA GREEN","118 BROADWAY ST STE 232, SAN ANTONIO, TX 78205",48029,87294,546254,-98.487599,29.4272194
"603",742974140,2015,"VICTORIA COUNTY MASTER GARDENER ASSOCIATION","PO BOX 1723, VICTORIA, TX 77902",48469,264995,268742,-97.01,28.8
"604",741956079,2015,"ASSOCIATION OF WATER BOARD DIRECTORS - TEXAS","400 RANDAL WAY, SPRING, TX 77388",48201,2318454,1881539,-95.4343181,30.0369695
"605",742757165,2015,"TEXAS COALITION GLCI INC","PO BOX 146, VICTORIA, TX 77902",48469,3459,39235,-97.01,28.8
"606",742562764,2015,"KEEP TEMPLE BEAUTIFUL","100 W ADAMS AVE STE 302, TEMPLE, TX 76501",48027,75114,87014,-97.3421193,31.0983961
"607",742927796,2015,"FRIENDS OF ENCHANTED ROCK STATE NATURAL AREA INC","16710 RANCH ROAD 965, FREDERICKSBRG, TX 78624",48171,108513,84699,-98.8199648,30.4960306
"608",760031884,2015,"CRADLE OF TEXAS CONSERVANCY INC","PO BOX 353, WEST COLUMBIA, TX 77486",48039,724052,690,-95.6452249,29.1438582
"609",752645064,2015,"LONGVIEW PARKS AND LEISURE SERVICES FOUNDATION","PO BOX 2761, LONGVIEW, TX 75606",48183,416460,183024,-94.730502,32.462314
"610",752955573,2015,"TRINITY RIVER COMMISSION INC DBA TRINITY COMMONS FOUNDATION INC","12900 PRESTON ROAD, DALLAS, TX 75230",48113,130654,367719,-96.8021119,32.9233501
"611",760043028,2015,"TEXAS BIGHORN SOCIETY","1615 W LOOP 289, LUBBOCK, TX 79416",48303,581992,176555,-101.941887,33.578959
"612",273886247,2015,"ECOSOLUTIONS FOUNDATION INC","2787 RIDGECREST DR, SOUTHLAKE, TX 76092",48439,46416,252949,-97.1442792,32.9771871
"613",455017295,2015,"WHAT-A-KITE FOUNDATION INC","205 CROWN COLONY DR, LUFKIN, TX 75901",48005,120559,11359,-94.7269479,31.274491
"614",742633614,2015,"COASTAL BEND GUIDES ASSOCIATION","PO BOX 1571, ARANSAS PASS, TX 78335",48409,22382,40011,-97.0975854,27.8777613
"615",751879329,2015,"LAKE GRANBURY AREA BEAUTIFICATION COUNCIL INC","PO BOX 1921, GRANBURY, TX 76048",48221,108475,49914,NA,NA
"616",620604364,2015,"AFRICAN VIOLET SOCIETY OF AMERICA INC","2375 NORTH ST, BEAUMONT, TX 77702",48245,379344,291176,-94.1222134,30.0875405
"617",271255467,2015,"DASH FOR THE BEADS","900 W DAVIS ST, DALLAS, TX 75208",48113,34048,98346,-96.837764,32.7492931
"618",760617108,2015,"BLACKWOOD EDUCATIONAL LAND INSTITUTE","PO BOX 271347, HOUSTON, TX 77277",48201,1621,149439,-95.6049489,29.7461902
"619",752244319,2015,"KEEP ODESSA BEAUTIFUL INC","PO BOX 3864, ODESSA, TX 79760",48135,43779,3592,-102.3665236,31.8463268
"620",203398696,2015,"GROUNDWORK DALLAS INC","3001 QUEBEC, DALLAS, TX 75247",48113,285650,511405,-96.8616491,32.8042661
"621",742055923,2015,"NATIONAL HISPANIC INSTITUTE INC","472 FM 1966, MAXWELL, TX 78656",48055,625476,1886105,-97.800128,29.883532
"622",452701367,2015,"MISSION VERDE ALLIANCE","PO BOX 15856, SAN ANTONIO, TX 78212",48029,13584,60440,-98.4936282,29.4241219
"623",431987259,2015,"TEXAS WATERSHED MANAGEMENT FOUNDATION","214 LEISURE ACRES RD, GATESVILLE, TX 76528",48099,206292,58065,-97.7835264,31.4068199
"624",273768198,2015,"WOODS AND WATER KIDS ADVENTURES INC","6315B FM 1488 RD, MAGNOLIA, TX 77354",48339,57150,150461,-95.5643531,30.2218273
"625",264419008,2015,"ECO ELP INC","PO BOX 3243, EL PASO, TX 79923",48141,54691,50678,-106.459373,31.7818968
"626",364685823,2015,"LAND CONSERVATION SOCIETY OF TEXAS INC","19333 HIGHWAY 59 N STE 170, HUMBLE, TX 77338",48201,118334,63373,-95.2714419,29.9991145
"627",542143893,2015,"DENTON COUNTY MASTER GARDENER ASSOCIATIO","401 W HICKORY ST, DENTON, TX 76201",48121,43562,54259,-97.1368444,33.2142177
"628",454477343,2015,"CULLINAN PARK CONSERVANCY","PO BOX 422, SUGAR LAND, TX 77487",48157,512258,506997,-95.636695,29.6178751
"629",752793697,2015,"KEEP ROWLETT BEAUTIFUL INC","PO BOX 1992, ROWLETT, TX 75030",48113,82201,351694,-96.5709471,32.9053964
"630",742891025,2015,"TEXAS CAMPAIGN FOR THE ENVIRONMENT","105 W RIVERSIDE DR STE 120, AUSTIN, TX 78704",48453,175494,1579007,-97.747824,30.2574447
"631",742143423,2015,"KEEP BRAZOS BEAUTIFUL INC","1713 BROADMOOR DR STE 302, BRYAN, TX 77802",48041,94413,100478,-96.342877,30.652275
"632",743136755,2015,"CARLTON WOODS CREEKSIDE ASSOCIATION INC","2204 TIMBERLOCH PL STE 180, THE WOODLANDS, TX 77380",48339,1546288,1556610,-95.4699992,30.159091
"633",751514511,2016,"MARIANNE SCRUGGS GARDEN CLUB OF THE DALLAS WOMANS CLUB","7000 PARK LN, DALLAS, TX 75225",48113,143328,55369,-96.7846237,32.8728447
"634",752337868,2015,"TEXAS CONSERVATION FUND","PO BOX 58405, HOUSTON, TX 77258",48201,103624,115022,-95.3698028,29.7604267
"635",760458344,2015,"WOMENS ENERGY NETWORK OF HOUSTON","1707 POST OAK BLVD PMB 112, HOUSTON, TX 77056",48201,581218,671646,-95.46001,29.749344
"636",742279212,2015,"ASSOCIATED BUILDERS AND CONTRACTORS","1408 N BEN JORDAN ST, VICTORIA, TX 77901",48469,326047,440032,-96.981912,28.804762
"637",742924400,2015,"COMMUNITY INVESTMENT CORPORATION","PO BOX 4279, AUSTIN, TX 78765",48453,0,130,-97.7437526,30.3040525
"638",742924909,2015,"COASTAL BEND BAYS AND ESTUARIES PROGRAM INC","615 N UPPER BROADWAY ST STE 1200, CORP CHRISTI, TX 78401",48355,16274872,6832008,-97.3965231,27.7968881
"639",900648270,2015,"PARAPLEGICS ON INDEPENDENT NATURE TRIPS","403 PACIFIC AVE, TERRELL, TX 75160",48257,26386,70028,-96.2831375,32.7405023
"640",203415046,2015,"FRIENDS OF BLUE HOLE","PO BOX 1601, WIMBERLEY, TX 78676",48209,50509,154621,-98.0986204,29.9974362
"641",751980443,2015,"WICHITA FALLS STREAMS AND VALLEYS INC","PO BOX 1588, WICHITA FALLS, TX 76307",48485,151435,185917,-98.49,33.9099999
"642",742466775,2015,"LAKE WHITNEY MINISTERIAL ALLIANCE","PO BOX 1502, WHITNEY, TX 76692",48217,446527,235600,-97.315709,31.9519106
"643",201508875,2015,"LANDA GARDENS CONSERVANCY","PO BOX 12243, SAN ANTONIO, TX 78212",48029,1034088,408660,-98.4936282,29.4241219
"644",742601251,2016,"DAVIS MOUNTAINS TRANS PECOS HERITAGE ASSOCIATION","PO BOX 1209, ALPINE, TX 79831",48043,11024,47808,-103.6610115,30.3584919
"645",752234375,2015,"KEEP ATHENS BEAUTIFUL","201 W CORSICANA SUITE 4, ATHENS, TX 75751",48213,33100,65433,-95.8567337,32.2039868
"646",472261024,2015,"OUR NATIONS ENERGY FUTURE COALITION INC","1200 SMITH STREET, HOUSTON, TX 77002",48201,275771,600000,-95.3709733,29.7569509
"647",471982274,2015,"TANZANIA WILDILFE AND CONSERVATION FUND INC","100 CRESCENT CT STE 350, DALLAS, TX 75201",48113,42699,217373,-96.803308,32.7939118
"648",460920592,2015,"TEXAS LITTER CONTROL","150 PRUITT ROAD, SPRING, TX 77380",48339,113632,1270041,-95.443835,30.1198365
"649",200325123,2015,"COASTAL BEACH AND BAY FOUNDATION","4108 PIRATES BCH, GALVESTON, TX 77554",48167,187854,57,-94.9364115,29.2051074
"650",263749177,2015,"SAN ANTONIO BAY FOUNDATION","933 E COURT ST, SEGUIN, TX 78155",48187,26694,196636,-97.953625,29.5686778
"651",465427185,2015,"TEXAS WATER SMART FOUNDATION","4218 MYSTIC LN, NACOGDOCHES, TX 75965",48347,88750,88750,-94.6101235,31.6512063
"652",61693724,2015,"US GREEN BUILDING COUNCIL TEXAS GULF COAST CHAPTER","10401 WESTOFFICE DR, HOUSTON, TX 77042",48201,19195,74800,-95.551474,29.7199302
"653",760628143,2015,"KEEP SUGAR LAND BEAUTIFUL INC KEEP SUGAR LAND BEAUTIFUL","119 BROOKS ST, SUGAR LAND, TX 77478",48157,209495,122255,-95.6348139,29.618904
"654",760685448,2015,"WILLOW WATERHOLE GREENSPACE CONSERVANCY INC","11415 CHIMNEY ROCK RD STE 201, HOUSTON, TX 77035",48201,25615,63288,-95.4761018,29.6573257
"655",742742037,2016,"RGISC INC","1 WEST END WASHINGTON ST BLDG P-11, LAREDO, TX 78040",48479,251267,231565,-99.5192691,27.5089076
"656",742627643,2015,"ENVIRONMENTAL FUND FOR TEXAS INC","PO BOX 1911, AUSTIN, TX 78767",48453,1240988,833146,-97.739694,30.2694174
"657",742603919,2016,"COASTAL BEND BAYS FOUNDATION INC","1231 AGNES STREET SUITE A15, CORPUS CHRISTI, TX 78401",48355,64540,66061,-97.4046056,27.787423
"658",201991645,2016,"BEAU THERIOT COMANCHE CANYON PRESERVE LANDS INC","6535 COMANCHE TRL, AUSTIN, TX 78732",48453,8486633,56832,-97.8709185,30.4043619
"659",371581800,2017,"GLEN ROSE BAND BOOSTER CLUB","PO BOX 3148, GLEN ROSE, TX 76043",48425,42299,49367,-97.7553061,32.2345872
"660",742772459,2017,"TEXAS GULF COAST SUPERINTENDENTS ASSOCIATION","PO BOX 785, BLANCO, TX 78427",48355,32395,30034,-98.4214095,30.0979862
"661",742352514,2016,"LOWER RIO GRANDE VALLEY NATURE CENT","PO BOX 8125, WESLACO, TX 78599",48215,196333,208469,-97.9914086,26.1989275
"662",752212157,2016,"EVERETT E AND ORABETH K WOODS FOUNDATION","PO BOX 5749, ABILENE, TX 79608",48441,142029,8407,-99.75,32.42
"663",471772600,2016,"KEEPAMERICACLEANORG","3119 TIMBER VIEW DR, SUGAR LAND, TX 77479",48157,1,0,-95.5981026,29.5761185
"664",742350192,2016,"TEXAS RENEWABLE ENERGY INDUSTRIES ASSOC","PO BOX 340447, AUSTIN, TX 78734",48453,40444,179167,-97.9483898,30.3666665
"665",752580047,2017,"KEEP IRVING BEAUTIFUL","3000 ROCK ISLAND RD, IRVING, TX 75060",48113,31667,76390,-96.9871941,32.8149515
"666",461195052,2016,"KIDS ON THE LAND INC","4004 GATEWAY DR STE 180, COLLEYVILLE, TX 76034",48439,60012,90095,-97.1042703,32.8841517
"667",742441468,2017,"SUSTAINABLE FOOD CENTER","2921 EAST 17TH STREET BUILDING C, AUSTIN, TX 78702",48453,4854934,1852421,-97.7100801,30.278543
"668",431987259,2017,"TEXAS WATERSHED MANAGEMENT FOUNDATION","214 LEISURE ACRES RD, GATESVILLE, TX 76528",48099,71608,29885,-97.7835264,31.4068199
"669",454908468,2016,"BISBEES FISH AND WILDLIFE CONSERVATION FUND INC","2300 MCDERMOTT RD STE 200 # 382, PLANO, TX 75025",48085,45629,503185,NA,NA
"670",741692204,2016,"CITIZENS ENVIRONMENTAL COALITION EDUCATION FUND","PO BOX 702, HOUSTON, TX 77001",48201,57075,108586,-95.37,29.77
"671",113736286,2017,"NATIONAL NETWORK OF ABORTION FUNDS","PO BOX 227336, DALLAS, TX 75224",48113,220172,365604,-96.84046,32.706669
"672",331095299,2017,"GALVESTON ISLAND NATURE TOURISM COUNCIL","PO BOX 1468, GALVESTON, TX 77553",48167,220151,239339,-94.79545,29.3026
"673",752361817,2017,"SOLID WASTE ASSOCIATION OF NORTH AM TEXAS LONE STAR CHAPTER TEXAS LONE STAR CHAPTER","PO BOX 1088, AUSTIN, TX 78767",48453,249989,319202,-97.739694,30.2694174
"674",742245311,2017,"WILDFLOWER DONOR INC","221 W 6TH ST STE 1200, AUSTIN, TX 78739",48453,108556,19831,-97.7451503,30.2679492
"675",510187748,2017,"DALLAS GARDEN CLUB OF THE DALLAS WOMANS CLUB","7000 PARK LN, DALLAS, TX 75225",48113,224894,241148,-96.7846237,32.8728447
"676",751840314,2017,"FORT WORTH GARDEN CLUB INC","3220 BOTANIC GARDEN BLVD, FORT WORTH, TX 76107",48439,3786360,1224831,-97.3636032,32.7404284
"677",203287015,2017,"CALM AIR VISIBILITY UNLIMITED","941 W BYRD BLVD STE 101, UNIVERSAL CTY, TX 78148",48029,56838,182477,-98.3033266,29.5413977
"678",237357269,2017,"TEXAS AIRSTREAM HARBOR INC TAHI","2710 S MEDFORD DR, LUFKIN, TX 75901",48005,112210,105741,-94.7029001,31.317648
"679",274374251,2017,"MAGNOLIA GARDEN CLUB","148 S DOWLEN ROAD 642, BEAUMONT, TX 77707",48245,486708,300539,-94.1730943,30.0730332
"680",421573695,2017,"HOUSTON WILDERNESS","550 WESTCOTT ST STE 305, HOUSTON, TX 77007",48201,369412,691133,-95.4213244,29.7669429
"681",750974342,2017,"TEXAS DISCOVERY GARDENS","PO BOX 152537, DALLAS, TX 75315",48113,688671,1413569,-96.7690925,32.773792
"682",741946081,2017,"HOUSTON CLEAN CITY COMMISSION INC","3000 RICHMOND AVE STE 350, HOUSTON, TX 77098",48201,137266,545618,-95.4239434,29.7345431
"683",756423660,2017,"BAIRD FAMILY CHARITABLE TRUST","104 N BIRMINGHAM ST, WYLIE, TX 75081",48113,693873,221462,-96.5408758,33.0146437
"684",760501430,2017,"URBAN HARVEST INC","3302 CANAL ST STE 73, HOUSTON, TX 77003",48201,699012,292052,-95.339092,29.7528261
"685",747055759,2017,"KEEP TEXAS BEAUTIFUL INC","8850 BUSINESS PARK DR STE 200, AUSTIN, TX 78759",48453,826042,883347,-97.7412397,30.3784744
"686",461481647,2017,"COLORADO RIVER LAND TRUST INC","3700 LAKE AUSTIN BLVD, AUSTIN, TX 78703",48453,1164968,93946,-97.7824551,30.2940447
"687",751220638,2017,"ROLLING PLAINS COTTON GROWERS INC","PO BOX 5382, ABILENE, TX 79608",48441,231372,156625,-99.75,32.42
"688",260573774,2017,"THROCKMORTON BEAUTIFICATION COMMITTEE","104 E HIGH ST, THROCKMORTON, TX 76483",48447,208795,7685,-99.1769487,33.1801588
"689",742631397,2017,"FRIENDS OF THE COLORADO RIVER FOUNDATION","PO BOX 50029, AUSTIN, TX 78763",48453,457071,595465,-97.7430608,30.267153
"690",752243795,2017,"WOMENS COUNCIL OF THE DALLAS ARBORETUM AND BOTANICAL GARDEN","47 HIGHLAND PARK VLG STE 200, DALLAS, TX 75205",48113,1004608,421981,-96.8055857,32.8364039
"691",751057918,2017,"TEXAS GARDEN CLUBS INC","3111 OLD GARDEN RD, FORT WORTH, TX 76107",48439,802828,136212,-97.3635705,32.738796
"692",752154523,2017,"ANGELINA BEAUTIFULCLEAN","PO BOX 1606, LUFKIN, TX 75902",48005,173718,129843,-94.7235939,31.3374423
"693",760567365,2017,"PECKERWOOD GARDENS CONSERVATION FOUNDATION INC","20571 FM 359 RD, HEMPSTEAD, TX 77445",48473,1221767,282852,-96.039607,30.057688
"694",742645332,2017,"VALLEY PROUD ENVIRONMENTAL COUNCIL","513 E JACKSON ST STE 304, HARLINGEN, TX 78550",48061,26191,110815,-97.6906359,26.1930745
"695",263299387,2017,"FORT BEND GREEN","ONE FLUOR DANIEL DRIVE, SUGAR LAND, TX 77478",48157,220093,75968,-95.626403,29.605815
"696",752254312,2017,"KEEP MESQUITE BEAUTIFUL INC","PO BOX 850137, MESQUITE, TX 75185",48113,25872,23462,-96.5983607,32.7757
"697",746068250,2017,"BIG BEND NATURAL HISTORY ASSOCIATION INC","PO BOX 196, BG BND NTL PK, TX 79834",48043,792311,816580,-103.2201828,29.2669239
"698",742164352,2017,"KEEP WACO BEAUTIFUL INC","502 B AUSTIN AVENUE, WACO, TX 76703",48309,247062,169893,-97.1319586,31.5564723
"699",760327389,2017,"HERMANN PARK CONSERVANCY","1700 HERMANN DR, HOUSTON, TX 77030",48201,28476814,27886833,-95.3849511,29.7192446
"700",800385916,2017,"RECYCLED POMERANIANS AND SCHIPPERKES RESCUE","1530 TURNING LEAF LN, GARLAND, TX 75040",48113,23388,259215,-96.6071439,32.9347059
"701",760655841,2017,"MEMORIAL PARK CONSERVANCY INC","7575 N PICNIC, HOUSTON, TX 77007",48201,26290646,9373467,-95.4477855,29.767053
"702",800541645,2017,"MEMORIAL PARK CONSERVANCY ENDOWMENT","7575 N PICNIC, HOUSTON, TX 77007",48201,265118,6133,-95.4477855,29.767053
"703",741145998,2017,"RIVER OAKS GARDEN CLUB","2503 WESTHEIMER RD, HOUSTON, TX 77098",48201,1874020,885209,-95.417969,29.7420042
"704",752793697,2017,"KEEP ROWLETT BEAUTIFUL INC","PO BOX 1992, ROWLETT, TX 75030",48113,113137,343820,-96.5709471,32.9053964
"705",754213005,2017,"NEW BRAUNFELS CONSERVATION SOCIETY FOUNDATION TRUST","1300 CHURCHILL DR, NEW BRAUNFELS, TX 78130",48091,337991,107092,-98.0975978,29.7080239
"706",750975500,2017,"AMERICAN ASSOCIATION OF PROFESSIONAL LANDMEN INC","800 FOURNIER ST, FORT WORTH, TX 76102",48439,33518822,14878600,-97.3445518,32.7505138
"707",741617540,2017,"MEDINA LAKE BETTERMENT ASSOCIATION INC","PO BOX 404, LAKEHILLS, TX 78063",48019,379715,135610,-98.9430859,29.604672
"708",760617443,2017,"NORTH AMERICAN PROCESS TECHNOLOGY ALLIANCE","1501 N AMBURN RD STE 3, TEXAS CITY, TX 77591",48167,386425,313256,-95.0041672,29.3966703
"709",274272004,2017,"DEVILS RIVER CONSERVANCY","401 CONGRESS AVENUE, AUSTIN, TX 78701",48453,46709,161767,-97.7428161,30.266699
"710",742607076,2017,"AUSTIN YOUTH RIVER WATCH","10611 PLATT LN, AUSTIN, TX 78725",48453,155959,329063,-97.6387414,30.233342
"711",742714186,2017,"CHAUTAUQUA FOUNDATION INC","801 W GIBSON ST, AUSTIN, TX 78704",48453,70237,80930,-97.7563629,30.252327
"712",900648270,2017,"PARAPLEGICS ON INDEPENDENT NATURE TRIPS","403 PACIFIC AVE, TERRELL, TX 75160",48257,27800,20362,-96.2831375,32.7405023
"713",742633614,2017,"COASTAL BEND GUIDES ASSOCIATION","PO BOX 1571, ARANSAS PASS, TX 78335",48409,18949,31772,-97.0975854,27.8777613
"714",452609167,2017,"COASTAL PRAIRIE PARTNERSHIP","PO BOX 540342, HOUSTON, TX 77254",48201,3088,8350,-95.41,29.68
"715",742741170,2017,"TEXAS ON SITE WASTEWATER ASSOCIATION INC","PO BOX 885, BRIDGE CITY, TX 75965",48347,413036,315872,-93.8457255,30.0207678
"716",746388418,2017,"FORMOSA PLASTICS ENVIRONMENTAL TRUST","PO BOX 7, PORT LAVACA, TX 77979",48057,840298,14503,-96.6421835,28.6170127
"717",260106908,2017,"HILL COUNTRY ALLIANCE","15315 W HIGHWAY 71, AUSTIN, TX 78738",48453,431139,538283,-97.9829724,30.3154087
"718",916310582,2017,"EVA AND ARRA WOODS CHARITABLE TRUST","BANK OF AMERICA NA PO BOX 831, DALLAS, TX 75283",48113,1090990,490973,-96.8037023,32.8370764
"719",800927243,2018,"WATERFOWL PRESERVATION ALLIANCE INC C O DJ SEIDEL","7324 SOUTHWEST FWY STE 610, HOUSTON, TX 77074",48201,13652,126046,-95.5181819,29.7018321
"720",760391164,2017,"LAFFITES COVE AT PIRATES BEACH NATURE SOCIETY","PO BOX 160, TOMBALL, TX 77377",48201,372586,71910,-95.6160549,30.0971621
"721",271255467,2017,"DASH FOR THE BEADS","3606 S TYLER ST, DALLAS, TX 75208",48113,49461,121838,-96.8368578,32.699618
"722",710920918,2017,"WATERSHED CORP","PO BOX 2125, CEDAR HILL, TX 75104",48113,90749,91646,-96.9345602,32.5911458
"723",742757165,2017,"TEXAS COALITION GLCI INC","PO BOX 146, VICTORIA, TX 77902",48469,28025,90082,-97.01,28.8
"724",10736021,2017,"FRIENDS OF BALCONES CANYONLANDS NATIONAL WILDLIFE REFUGE","PO BOX 4678, LAGO VISTA, TX 78645",48453,387752,59123,-97.9883477,30.4601975
